[
  {
    "id": "honda-akihabara",
    "legacy_id": 1,
    "name": "麺処 ほん田 秋葉原本店",
    "area_id": "akihabara",
    "genre": "ラーメン",
    "time_category": ["昼", "夜"],
    "hours": "11:30〜15:00、18:00〜21:00",
    "tags": ["ガッツリ", "一人OK"],
    "address": "東京都千代田区外神田3-7-2",
    "lat": 35.7016,
    "lng": 139.7704,
    "default_ai_summary": "都内屈指の有名店。並びは激しいが、大勝ちした日の最高のご褒美麺として完璧なクオリティ。"
  },
  {
    "id": "aoshima-shokudo-akihabara",
    "legacy_id": 2,
    "name": "青島食堂 秋葉原店",
    "area_id": "akihabara",
    "genre": "ラーメン",
    "time_category": ["昼", "夜"],
    "hours": "11:00〜21:00",
    "tags": ["ガッツリ", "一人OK"],
    "address": "東京都千代田区神田須田町2-12-5",
    "lat": 35.6948,
    "lng": 139.7720,
    "default_ai_summary": "新潟・長岡発祥の生姜醤油ラーメンの名店。あっさり系ながら旨味が濃く、軍資金を使い切った後のリセット飯としても重宝する。"
  },
  {
    "id": "ramen-waizu-akihabara",
    "legacy_id": 3,
    "name": "秋葉原 ラーメン わいず",
    "area_id": "akihabara",
    "genre": "ラーメン",
    "time_category": ["昼", "夜"],
    "hours": "10:30〜22:00",
    "tags": ["サク飯", "ガッツリ", "一人OK"],
    "address": "東京都千代田区外神田3-2-13",
    "lat": 35.7000,
    "lng": 139.7707,
    "default_ai_summary": "濃厚でガツンとくる家系ラーメン。終日営業しているため、どの時間帯の休憩でも立ち寄りやすい。"
  },
  {
    "id": "hakata-furyu-akihabara",
    "legacy_id": 4,
    "name": "博多風龍 秋葉原総本店",
    "area_id": "akihabara",
    "genre": "ラーメン",
    "time_category": ["昼", "夜"],
    "hours": "11:00〜翌2:00",
    "tags": ["サク飯", "ガッツリ", "一人OK", "深夜OK"],
    "address": "東京都千代田区外神田1-10-11",
    "lat": 35.6985,
    "lng": 139.7716,
    "default_ai_summary": "電気街口側にある、爆速提供＋替玉2玉無料の定番ラーメン店。一人サク飯にも勝った日のご褒美にも使いやすい。"
  },
  {
    "id": "curry-wa-nomimono-akihabara",
    "legacy_id": 5,
    "name": "カレーは飲み物。秋葉原店",
    "area_id": "akihabara",
    "genre": "カレー",
    "time_category": ["昼", "夜"],
    "hours": "11:00〜16:00、17:30〜21:30",
    "tags": ["サク飯", "ガッツリ", "一人OK"],
    "address": "東京都千代田区外神田3-10-5",
    "lat": 35.7016,
    "lng": 139.7720,
    "default_ai_summary": "トッピングが3つ選べる濃厚カレー。提供スピードが早く、ガッツリ食べてすぐホールに戻りたい時に最適。"
  },
  {
    "id": "curry-no-shimin-alba-akihabara",
    "legacy_id": 6,
    "name": "カレーの市民 アルバ 秋葉原本店",
    "area_id": "akihabara",
    "genre": "カレー",
    "time_category": ["昼", "夜"],
    "hours": "11:00〜21:30",
    "tags": ["サク飯", "ガッツリ", "一人OK"],
    "address": "東京都千代田区外神田1-6-7",
    "lat": 35.6985,
    "lng": 139.7708,
    "default_ai_summary": "秋葉原駅電気街口の裏手、サボニウス広場近く。濃厚な金沢カレーで、サクッとエネルギー補給をするのに便利。"
  },
  {
    "id": "karigari-akihabara",
    "legacy_id": 7,
    "name": "カリガリ 秋葉原",
    "area_id": "akihabara",
    "genre": "カレー",
    "time_category": ["昼", "夜"],
    "hours": "11:30〜23:00",
    "tags": ["一人OK", "深夜OK"],
    "address": "東京都千代田区外神田6-14-2",
    "lat": 35.7044,
    "lng": 139.7702,
    "default_ai_summary": "神田カレーグランプリ優勝店。お洒落な空間ながら、スパイスの効いたカレーで脳をリフレッシュできる。"
  },
  {
    "id": "marugo",
    "legacy_id": 8,
    "name": "丸五",
    "area_id": "akihabara",
    "genre": "とんかつ/カツ丼",
    "time_category": ["昼", "夜"],
    "hours": "11:30〜14:00、17:00〜20:00",
    "tags": ["ガッツリ", "一人OK"],
    "address": "東京都千代田区外神田1-8-14",
    "lat": 35.6993,
    "lng": 139.7716,
    "default_ai_summary": "行列必至のミシュラン掲載店。「勝負に勝つ」ゲン担ぎや、大勝利した日の贅沢ディナーにふさわしい名店。"
  },
  {
    "id": "tonkatsu-aoki-akihabara",
    "legacy_id": 9,
    "name": "とんかつ 檍 秋葉原店",
    "area_id": "akihabara",
    "genre": "とんかつ/カツ丼",
    "time_category": ["昼", "夜"],
    "hours": "11:00〜15:00、17:00〜21:00",
    "tags": ["ガッツリ", "一人OK"],
    "address": "東京都千代田区外神田3-6-4",
    "lat": 35.7010,
    "lng": 139.7706,
    "default_ai_summary": "レア気味に揚げられた極厚のSPF豚が絶品。軍資金に余裕がある時の贅沢飯としておすすめ。"
  },
  {
    "id": "nadai-fujisoba-akihabara-denkigai",
    "legacy_id": 10,
    "name": "名代 富士そば 秋葉原電気街店",
    "area_id": "akihabara",
    "genre": "そば/うどん",
    "time_category": ["朝", "昼", "夜"],
    "hours": "24時間営業",
    "tags": ["サク飯", "一人OK", "深夜OK", "朝飯OK"],
    "address": "東京都千代田区外神田1-15-18",
    "lat": 35.6986,
    "lng": 139.7727,
    "default_ai_summary": "秋葉原駅電気街口の目の前。24時間営業のため、抽選前の朝食から閉店後の夜食までいつでも使える絶対的安心感。"
  },
  {
    "id": "komoro-soba-akihabara",
    "legacy_id": 11,
    "name": "小諸そば 秋葉原店",
    "area_id": "akihabara",
    "genre": "そば/うどん",
    "time_category": ["朝", "昼", "夜"],
    "hours": "6:30〜22:00",
    "tags": ["サク飯", "一人OK", "朝飯OK"],
    "address": "東京都千代田区外神田1-8-13",
    "lat": 35.6993,
    "lng": 139.7714,
    "default_ai_summary": "安くて早くて旨い立ち食いそば。並びから実食まで10分以内で完結するため、短時間の昼休憩に重宝する。"
  },
  {
    "id": "sutadonya-akihabara",
    "legacy_id": 12,
    "name": "すた丼屋 秋葉原店",
    "area_id": "akihabara",
    "genre": "丼もの",
    "time_category": ["昼", "夜"],
    "hours": "11:00〜23:00",
    "tags": ["サク飯", "ガッツリ", "一人OK", "深夜OK"],
    "address": "東京都千代田区外神田4-4-3",
    "lat": 35.7026,
    "lng": 139.7720,
    "default_ai_summary": "ジャンクでニンニクの効いた伝説のすた丼。圧倒的スピード提供と強烈な塩分・総カロリーで、疲れた脳に活力を注入できる。"
  },
  {
    "id": "roast-beef-ohno-akihabara",
    "legacy_id": 13,
    "name": "ローストビーフ大野 秋葉原店",
    "area_id": "akihabara",
    "genre": "丼もの",
    "time_category": ["昼", "夜"],
    "hours": "11:00〜22:00",
    "tags": ["ガッツリ", "一人OK"],
    "address": "東京都千代田区外神田1-10-5",
    "lat": 35.6991,
    "lng": 139.7720,
    "default_ai_summary": "秋葉原駅近くの山盛りローストビーフ丼店。終日並びが激しいため、時間に余裕がある時の贅沢向け。"
  },
  {
    "id": "niku-no-mansei-akihabara",
    "legacy_id": 14,
    "name": "肉の万世 秋葉原本店",
    "area_id": "akihabara",
    "genre": "丼もの",
    "time_category": ["昼", "夜"],
    "hours": "11:00〜22:00",
    "tags": ["ガッツリ"],
    "address": "東京都千代田区神田須田町2-21",
    "lat": 35.6961,
    "lng": 139.7715,
    "default_ai_summary": "秋葉原の肉の聖地。ボリューム満点の万かつサンドのテイクアウトや、パチスロ大勝ち時の「万枚祝い」のディナーに最適。"
  },
  {
    "id": "okamuraya-akihabara",
    "legacy_id": 15,
    "name": "岡むら屋 秋葉原店",
    "area_id": "akihabara",
    "genre": "丼もの",
    "time_category": ["昼", "夜"],
    "hours": "10:00〜22:30",
    "tags": ["サク飯", "ガッツリ", "一人OK"],
    "address": "東京都千代田区外神田3-14-3",
    "lat": 35.7020,
    "lng": 139.7707,
    "default_ai_summary": "じっくり煮込まれた大ぶりの角切り肉が乗った「肉めし」が特徴。提供が早く、ガッツリ肉をかき込みたい時に重宝する。"
  },
  {
    "id": "mcdonalds-bic-camera-akiba",
    "legacy_id": 16,
    "name": "マクドナルド ビックカメラAKIBA店",
    "area_id": "akihabara",
    "genre": "ハンバーガー",
    "time_category": ["朝", "昼", "夜"],
    "hours": "7:00〜23:00",
    "tags": ["サク飯", "一人OK", "朝飯OK", "深夜OK"],
    "address": "東京都千代田区外神田1-15-4",
    "lat": 35.6985,
    "lng": 139.7729,
    "default_ai_summary": "ビックカメラAKIBA 1F、中央通り沿いの定番。朝マックから深夜まで使えて、短時間休憩でも待ち時間ゼロでサクッと済ませられる。"
  },
  {
    "id": "burger-king-akihabara-showadori",
    "legacy_id": 17,
    "name": "バーガーキング 秋葉原昭和通り店",
    "area_id": "akihabara",
    "genre": "ハンバーガー",
    "time_category": ["昼", "夜"],
    "hours": "10:00〜23:00",
    "tags": ["ガッツリ", "一人OK", "深夜OK"],
    "address": "東京都千代田区神田佐久間町1-14-1",
    "lat": 35.6989,
    "lng": 139.7747,
    "default_ai_summary": "秋葉原駅東側・昭和通り沿いのバーガーキング。直火焼きワッパーで肉欲をガッツリ満たせる、勝った日の脂質チャージ枠。"
  },
  {
    "id": "carls-jr-akihabara",
    "legacy_id": 18,
    "name": "Carl's Jr. 秋葉原中央通りレストラン",
    "area_id": "akihabara",
    "genre": "ハンバーガー",
    "time_category": ["昼", "夜"],
    "hours": "11:00〜22:00",
    "tags": ["ガッツリ", "一人OK"],
    "address": "東京都千代田区外神田1-15-16",
    "lat": 35.6989,
    "lng": 139.7724,
    "default_ai_summary": "中央通り沿いのアメリカン分厚いパティ系バーガー。大勝ちした日にガッツリ食べたい気分を満たしてくれる贅沢飯ポジション。"
  },
  {
    "id": "yakiniku-like-akihabara-denkigai",
    "legacy_id": 19,
    "name": "焼肉ライク 秋葉原電気街店",
    "area_id": "akihabara",
    "genre": "焼肉",
    "time_category": ["昼", "夜"],
    "hours": "11:00〜23:30",
    "tags": ["サク飯", "ガッツリ", "一人OK", "深夜OK"],
    "address": "東京都千代田区外神田1-15-2",
    "lat": 35.6985,
    "lng": 139.7727,
    "default_ai_summary": "一人焼肉専門チェーン。タッチパネル注文で待ち時間が短く、勝負前後に一人でスタミナチャージしたい時に最適。"
  },
  {
    "id": "yakiniku-toraji-akihabara",
    "legacy_id": 20,
    "name": "焼肉トラジ 秋葉原店",
    "area_id": "akihabara",
    "genre": "焼肉",
    "time_category": ["昼", "夜"],
    "hours": "11:30〜15:00、17:00〜23:00",
    "tags": ["ガッツリ"],
    "address": "東京都千代田区外神田1-18-19",
    "lat": 35.6993,
    "lng": 139.7735,
    "default_ai_summary": "厚切り高級カルビが看板の人気焼肉店。大勝ちした日のご褒美ディナーや、複数人での祝勝会に向くハレの日枠。"
  },
  {
    "id": "hamazushi-akihabara-denkigai",
    "legacy_id": 21,
    "name": "はま寿司 秋葉原電気街口店",
    "area_id": "akihabara",
    "genre": "回転寿司",
    "time_category": ["昼", "夜"],
    "hours": "11:00〜23:00",
    "tags": ["サク飯", "一人OK"],
    "address": "東京都千代田区外神田1-13-3",
    "lat": 35.6988,
    "lng": 139.7722,
    "default_ai_summary": "コスパ抜群の大手回転寿司チェーン。タッチパネル注文で軍資金を温存しつつ、サクッと食事を済ませたい時に重宝する。"
  },
  {
    "id": "menya-kaijin-shinjuku",
    "legacy_id": 22,
    "name": "麺屋海神 新宿店",
    "area_id": "shinjuku",
    "genre": "ラーメン",
    "time_category": ["昼", "夜"],
    "hours": "11:00〜15:00、16:30〜23:30",
    "tags": ["サク飯", "一人OK"],
    "address": "東京都新宿区新宿3-35-7 さんらくビル2F",
    "lat": 35.6914,
    "lng": 139.7010,
    "default_ai_summary": "東南口徒歩30秒のあら炊き塩ラーメン百名店。あっさり系で休憩後の復帰もしやすい。"
  },
  {
    "id": "manrai-shinjuku",
    "legacy_id": 23,
    "name": "らぁめん 満来",
    "area_id": "shinjuku",
    "genre": "ラーメン",
    "time_category": ["昼", "夜"],
    "hours": "11:00〜23:00",
    "tags": ["ガッツリ", "一人OK", "深夜OK"],
    "address": "東京都新宿区西新宿1-4-10 満来ビル1・2F",
    "lat": 35.6896,
    "lng": 139.6975,
    "default_ai_summary": "西口の60年老舗。巨大チャーシューで勝ち飯・負け飯どちらにも使える定番の一杯。"
  },
  {
    "id": "monsnack-kinokuniya-shinjuku",
    "legacy_id": 24,
    "name": "モンスナック 新宿紀伊國屋ビル店",
    "area_id": "shinjuku",
    "genre": "カレー",
    "time_category": ["昼", "夜"],
    "hours": "11:00〜21:15",
    "tags": ["サク飯", "ガッツリ", "一人OK"],
    "address": "東京都新宿区新宿3-17-7 紀伊國屋ビルB1F",
    "lat": 35.6905,
    "lng": 139.7048,
    "default_ai_summary": "元祖サラサラカレーの老舗。カツカレー1,000円で手軽にガッツリ補給できる。"
  },
  {
    "id": "tonkatsu-niimura-shinjuku",
    "legacy_id": 25,
    "name": "とんかつ にいむら 本店",
    "area_id": "shinjuku",
    "genre": "とんかつ/カツ丼",
    "time_category": ["昼", "夜"],
    "hours": "10:30〜翌6:00",
    "tags": ["ガッツリ", "一人OK", "深夜OK"],
    "address": "東京都新宿区歌舞伎町1-23-10",
    "lat": 35.6941,
    "lng": 139.7018,
    "default_ai_summary": "歌舞伎町の老舗とんかつ。深夜まで営業しており、カツ丼・定食でしっかり休憩できる。"
  },
  {
    "id": "shinshu-soba-honten-shinjuku",
    "legacy_id": 26,
    "name": "信州そば本陣 ルミネエスト新宿店",
    "area_id": "shinjuku",
    "genre": "そば/うどん",
    "time_category": ["朝", "昼", "夜"],
    "hours": "10:00〜22:00",
    "tags": ["サク飯", "一人OK"],
    "address": "東京都新宿区新宿3-38-1 ルミネエスト新宿B1F",
    "lat": 35.6908,
    "lng": 139.7008,
    "default_ai_summary": "駅直結で食券から約10秒提供。最速クラスのサク飯候補。"
  },
  {
    "id": "kanoya-shinjuku-nishiguchi",
    "legacy_id": 27,
    "name": "かのや 新宿西口店",
    "area_id": "shinjuku",
    "genre": "そば/うどん",
    "time_category": ["朝", "昼", "夜"],
    "hours": "7:00〜23:00",
    "tags": ["サク飯", "一人OK", "朝飯OK", "深夜OK"],
    "address": "東京都新宿区西新宿1-16-11",
    "lat": 35.6894,
    "lng": 139.6988,
    "default_ai_summary": "早朝7時開店の立ち食いそば・うどん。長時間稼働の朝食・夜食に頼れる。"
  },
  {
    "id": "tatsuya-shinjuku",
    "legacy_id": 28,
    "name": "たつ屋 新宿店",
    "area_id": "shinjuku",
    "genre": "丼もの",
    "time_category": ["朝", "昼", "夜"],
    "hours": "10:00〜22:00",
    "tags": ["サク飯", "一人OK"],
    "address": "東京都新宿区新宿3-35-2",
    "lat": 35.6913,
    "lng": 139.7013,
    "default_ai_summary": "1969年創業の老舗丼屋。牛・親子・かつ丼がワンコイン前後で、昭和の雰囲気の中サクッと食べられる。"
  },
  {
    "id": "js-burgers-cafe-shinjuku",
    "legacy_id": 29,
    "name": "J.S. BURGERS CAFE 新宿店",
    "area_id": "shinjuku",
    "genre": "ハンバーガー",
    "time_category": ["昼", "夜"],
    "hours": "11:00〜23:00",
    "tags": ["ガッツリ", "一人OK"],
    "address": "東京都新宿区新宿4-1-7 ジャーナルスタンダード新宿店3F",
    "lat": 35.6888,
    "lng": 139.7022,
    "default_ai_summary": "ハンバーガー百名店。新南口徒歩2分、テイクアウト可でホール復帰もしやすい。"
  },
  {
    "id": "yakiniku-like-shinjuku-nishiguchi",
    "legacy_id": 30,
    "name": "焼肉ライク 新宿西口店",
    "area_id": "shinjuku",
    "genre": "焼肉",
    "time_category": ["昼", "夜"],
    "hours": "10:00〜23:00",
    "tags": ["サク飯", "ガッツリ", "一人OK"],
    "address": "東京都新宿区西新宿7-11-17 ブレステン西新宿1F",
    "lat": 35.6938,
    "lng": 139.6962,
    "default_ai_summary": "一人焼肉専門チェーン。3分提供・無煙ロースターで西口エリアのスタミナチャージに最適。"
  },
  {
    "id": "himawari-sushi-shinjuku",
    "legacy_id": 31,
    "name": "ひまわり寿司 新都心店",
    "area_id": "shinjuku",
    "genre": "回転寿司",
    "time_category": ["昼", "夜"],
    "hours": "11:00〜22:00",
    "tags": ["サク飯", "一人OK"],
    "address": "東京都新宿区西新宿1-15-3",
    "lat": 35.6890,
    "lng": 139.6982,
    "default_ai_summary": "西口の老舗回転寿司。ランチ丼600〜750円でコスパ良く、気軽にネタを楽しめる。"
  },
  {
    "id": "ichiran-ikebukuro-ekimae",
    "legacy_id": 32,
    "name": "一蘭 池袋駅前店",
    "area_id": "ikebukuro",
    "genre": "ラーメン",
    "time_category": ["昼", "夜"],
    "hours": "24時間営業",
    "tags": ["サク飯", "一人OK", "深夜OK"],
    "address": "東京都豊島区東池袋1-42-8",
    "lat": 35.7315,
    "lng": 139.7145,
    "default_ai_summary": "東口徒歩2分・24時間の個室風カウンター。いつでもサクッと入れる池袋の定番ラーメン。"
  },
  {
    "id": "mukan-ikebukuro",
    "legacy_id": 33,
    "name": "むかん 池袋",
    "area_id": "ikebukuro",
    "genre": "ラーメン",
    "time_category": ["昼", "夜"],
    "hours": "11:00〜22:00（L.O. 21:30）",
    "tags": ["サク飯", "一人OK"],
    "address": "東京都豊島区南池袋1-24-5",
    "lat": 35.7283,
    "lng": 139.7128,
    "default_ai_summary": "楽園池袋店ビル内の牡蠣塩ラーメン専門店。850円・提供2〜3分で東口大型店からの休憩飯に最適。"
  },
  {
    "id": "mutekiya-ikebukuro",
    "legacy_id": 34,
    "name": "麺創房 無敵家",
    "area_id": "ikebukuro",
    "genre": "ラーメン",
    "time_category": ["昼", "夜"],
    "hours": "10:30〜翌4:00",
    "tags": ["ガッツリ", "一人OK", "深夜OK"],
    "address": "東京都豊島区南池袋1-17-1",
    "lat": 35.7288,
    "lng": 139.7118,
    "default_ai_summary": "1994年創業の家系風とんこつ。深夜まで営業し、池袋の〆ラーメンとして定番。"
  },
  {
    "id": "gogocurry-ikebukuro-higashiguchi",
    "legacy_id": 35,
    "name": "ゴーゴーカレー 池袋東口スタジアム",
    "area_id": "ikebukuro",
    "genre": "カレー",
    "time_category": ["昼", "夜"],
    "hours": "10:55〜21:55",
    "tags": ["サク飯", "ガッツリ", "一人OK"],
    "address": "東京都豊島区南池袋1-23-2 ティワイズビルB1F",
    "lat": 35.7286,
    "lng": 139.7132,
    "default_ai_summary": "東口地下の金沢カレー。キャベツ食べ放題・回転速く、手頃にガッツリ補給できる。"
  },
  {
    "id": "sukiya-higashi-ikebukuro",
    "legacy_id": 36,
    "name": "すき家 東池袋店",
    "area_id": "ikebukuro",
    "genre": "丼もの",
    "time_category": ["朝", "昼", "夜"],
    "hours": "4:00〜翌3:00（AM3:00〜4:00休業）",
    "tags": ["サク飯", "一人OK", "朝飯OK", "深夜OK"],
    "address": "東京都豊島区東池袋1-31-1",
    "lat": 35.7308,
    "lng": 139.7138,
    "default_ai_summary": "東口徒歩3分の牛丼チェーン。早朝4時開店で長時間稼働、最速クラスの丼飯候補。"
  },
  {
    "id": "yoshinoya-ikebukuro-higashiguchi",
    "legacy_id": 37,
    "name": "吉野家 池袋東口店",
    "area_id": "ikebukuro",
    "genre": "丼もの",
    "time_category": ["朝", "昼", "夜"],
    "hours": "24時間営業",
    "tags": ["サク飯", "一人OK", "朝飯OK", "深夜OK"],
    "address": "東京都豊島区東池袋1-7-8",
    "lat": 35.7305,
    "lng": 139.7140,
    "default_ai_summary": "東口至近の牛丼。券売機で素早く注文でき、休憩の合間にサクッと飯を済ませられる。"
  },
  {
    "id": "yakiniku-like-ikebukuro-higashiguchi",
    "legacy_id": 38,
    "name": "焼肉ライク 池袋東口店",
    "area_id": "ikebukuro",
    "genre": "焼肉",
    "time_category": ["昼", "夜"],
    "hours": "11:00〜23:00",
    "tags": ["サク飯", "ガッツリ", "一人OK"],
    "address": "東京都豊島区東池袋1-40-3 池袋籏ビル1F",
    "lat": 35.7312,
    "lng": 139.7148,
    "default_ai_summary": "東口徒歩1分の一人焼肉専門。無煙ロースターで気軽にスタミナチャージできる。"
  },
  {
    "id": "kurasushi-ikebukuro-nishiguchi",
    "legacy_id": 39,
    "name": "くら寿司 池袋駅西口店",
    "area_id": "ikebukuro",
    "genre": "回転寿司",
    "time_category": ["昼", "夜"],
    "hours": "11:00〜24:00",
    "tags": ["サク飯", "一人OK", "深夜OK"],
    "address": "東京都豊島区西池袋1-10-10 東武アネックスビルB1F",
    "lat": 35.7298,
    "lng": 139.7095,
    "default_ai_summary": "西口徒歩1分の回転寿司チェーン。深夜まで営業し、西口ホール圏からの軽食に使いやすい。"
  },
  {
    "id": "oedo-soba-ikebukuro",
    "legacy_id": 40,
    "name": "大江戸そば 池袋店",
    "area_id": "ikebukuro",
    "genre": "そば/うどん",
    "time_category": ["朝", "昼", "夜"],
    "hours": "6:00〜23:00",
    "tags": ["サク飯", "一人OK", "朝飯OK"],
    "address": "東京都豊島区南池袋1丁目 JR池袋駅構内",
    "lat": 35.7295,
    "lng": 139.7105,
    "default_ai_summary": "駅構内の立ち食いそば。6時開店で提供が速く、乗換・休憩の最速飯候補。"
  },
  {
    "id": "yasaburo-ikebukuro",
    "legacy_id": 41,
    "name": "弥三郎",
    "area_id": "ikebukuro",
    "genre": "そば/うどん",
    "time_category": ["昼", "夜"],
    "hours": "11:00〜21:00",
    "tags": ["サク飯", "一人OK"],
    "address": "東京都豊島区西池袋1-13-7",
    "lat": 35.7282,
    "lng": 139.7088,
    "default_ai_summary": "西口徒歩2分の町うどん老舗。安く早く、西池袋ホールからの休憩飯に重宝する。"
  },
  {
    "id": "nadai-fujisoba-shibuya-meiji-dori",
    "legacy_id": 42,
    "name": "名代 富士そば 明治通り店",
    "area_id": "shibuya",
    "genre": "そば/うどん",
    "time_category": ["朝", "昼", "夜"],
    "hours": "24時間営業（3:00〜4:00休業）",
    "tags": ["サク飯", "一人OK", "深夜OK", "朝飯OK"],
    "address": "東京都渋谷区渋谷1-14-15 森ビル1F",
    "lat": 35.6602,
    "lng": 139.7025,
    "default_ai_summary": "東口宮益坂交差点・明治通沿い。24時間営業の立ち食いそばで、道玄坂ホール圏からの最速飯候補。"
  },
  {
    "id": "ichiran-shibuya",
    "legacy_id": 43,
    "name": "一蘭 渋谷店",
    "area_id": "shibuya",
    "genre": "ラーメン",
    "time_category": ["昼", "夜"],
    "hours": "24時間営業",
    "tags": ["サク飯", "一人OK", "深夜OK"],
    "address": "東京都渋谷区神南1-22-7 岩本ビルB1F",
    "lat": 35.6611,
    "lng": 139.7009,
    "default_ai_summary": "ハチ公口徒歩3分・24時間の個室風カウンター。いつでもサクッと入れる渋谷の定番ラーメン。"
  },
  {
    "id": "kindenmaru-shibuya-dogenzaka",
    "legacy_id": 44,
    "name": "渋谷らーめん金伝丸",
    "area_id": "shibuya",
    "genre": "ラーメン",
    "time_category": ["昼", "夜"],
    "hours": "11:00〜翌7:30",
    "tags": ["サク飯", "ガッツリ", "一人OK", "深夜OK"],
    "address": "東京都渋谷区道玄坂2-9-2 渋専連ビル1F",
    "lat": 35.6588,
    "lng": 139.6983,
    "default_ai_summary": "西口徒歩1分の豚骨醤油ラーメン。深夜〜早朝まで営業し、道玄坂の〆麺として重宝する。"
  },
  {
    "id": "yoshinoya-shibuya-dogenzaka-dori",
    "legacy_id": 45,
    "name": "吉野家 渋谷道玄坂通店",
    "area_id": "shibuya",
    "genre": "丼もの",
    "time_category": ["朝", "昼", "夜"],
    "hours": "24時間営業",
    "tags": ["サク飯", "一人OK", "朝飯OK", "深夜OK"],
    "address": "東京都渋谷区道玄坂2-25-12",
    "lat": 35.6602,
    "lng": 139.6975,
    "default_ai_summary": "道玄坂通りの24時間牛丼。券売機で素早く注文でき、大型ホールからの休憩飯に最適。"
  },
  {
    "id": "sukiya-shibuya-sakuragaoka",
    "legacy_id": 46,
    "name": "すき家 渋谷桜丘店",
    "area_id": "shibuya",
    "genre": "丼もの",
    "time_category": ["朝", "昼", "夜"],
    "hours": "4:00〜翌3:00（AM3:00〜4:00休業）",
    "tags": ["サク飯", "一人OK", "朝飯OK", "深夜OK"],
    "address": "東京都渋谷区桜丘町15-19",
    "lat": 35.6565,
    "lng": 139.7016,
    "default_ai_summary": "新南口・桜丘側の牛丼チェーン。早朝4時開店で長時間稼働、サクラステージ動線の最速丼候補。"
  },
  {
    "id": "sutadonya-shibuya",
    "legacy_id": 47,
    "name": "伝説のすた丼屋 渋谷店",
    "area_id": "shibuya",
    "genre": "丼もの",
    "time_category": ["昼", "夜"],
    "hours": "11:00〜翌3:00",
    "tags": ["サク飯", "ガッツリ", "一人OK", "深夜OK"],
    "address": "東京都渋谷区道玄坂2-6-7 道玄坂Tビル1F",
    "lat": 35.6587,
    "lng": 139.6990,
    "default_ai_summary": "道玄坂徒歩2分の名物すた丼。ニンニク効いたガッツリ丼で、大型店からの腹ごしらえに最適。"
  },
  {
    "id": "katsuya-shibuya-dogenzaka",
    "legacy_id": 48,
    "name": "かつや 渋谷道玄坂店",
    "area_id": "shibuya",
    "genre": "とんかつ/カツ丼",
    "time_category": ["昼", "夜"],
    "hours": "10:00〜23:00",
    "tags": ["サク飯", "一人OK"],
    "address": "東京都渋谷区道玄坂2-9-2 正実ビル1F",
    "lat": 35.6588,
    "lng": 139.6983,
    "default_ai_summary": "西口徒歩1分のかつ丼・とんかつチェーン。提供が速く、道玄坂ホール圏の手軽な定番飯。"
  },
  {
    "id": "yakiniku-like-shibuya-dogenzaka",
    "legacy_id": 49,
    "name": "焼肉ライク 渋谷道玄坂店",
    "area_id": "shibuya",
    "genre": "焼肉",
    "time_category": ["昼", "夜"],
    "hours": "11:00〜23:00（L.O. 22:30）",
    "tags": ["サク飯", "ガッツリ", "一人OK"],
    "address": "東京都渋谷区道玄坂2-16-3 高葉屋ビル1F",
    "lat": 35.6588,
    "lng": 139.6971,
    "default_ai_summary": "道玄坂徒歩6分の一人焼肉専門。無煙ロースターで気軽にスタミナチャージできる。"
  },
  {
    "id": "kurasushi-shibuya-ekimae",
    "legacy_id": 50,
    "name": "くら寿司 渋谷駅前店",
    "area_id": "shibuya",
    "genre": "回転寿司",
    "time_category": ["昼", "夜"],
    "hours": "平日11:00〜23:00、土日祝10:20〜23:00",
    "tags": ["サク飯", "一人OK"],
    "address": "東京都渋谷区宇田川町23-3 渋谷第一勧銀共同ビル7F",
    "lat": 35.6597,
    "lng": 139.6996,
    "default_ai_summary": "ハチ公口徒歩1分の回転寿司チェーン。コスパ良好で、道玄坂ホール圏からの軽食に使いやすい。"
  },
  {
    "id": "matsuya-mycurry-shibuya-sakuragaoka",
    "legacy_id": 51,
    "name": "松屋・マイカリー食堂 渋谷桜丘店",
    "area_id": "shibuya",
    "genre": "カレー",
    "time_category": ["朝", "昼", "夜"],
    "hours": "24時間営業",
    "tags": ["サク飯", "一人OK", "朝飯OK", "深夜OK"],
    "address": "東京都渋谷区桜丘町1-4 渋谷サクラステージ SHIBUYAサイド 1F",
    "lat": 35.6570,
    "lng": 139.7020,
    "default_ai_summary": "サクラステージ1Fの24時間複合店。朝カレー530円台から牛丼まで、新南口動線の万能補給拠点。"
  },
  {
    "id": "nadai-fujisoba-ueno-ekimae",
    "legacy_id": 52,
    "name": "名代 富士そば 上野店",
    "area_id": "ueno",
    "genre": "そば/うどん",
    "time_category": ["朝", "昼", "夜"],
    "hours": "24時間営業",
    "tags": ["サク飯", "一人OK", "深夜OK", "朝飯OK"],
    "address": "東京都台東区上野7-2-1 上野駅前昭栄ビル",
    "lat": 35.7124,
    "lng": 139.7774,
    "default_ai_summary": "上野駅正面・24時間の立ち食いそば。券売機で最速提供、大型ホール圏の定番サク飯。"
  },
  {
    "id": "ichiran-ueno-atore",
    "legacy_id": 53,
    "name": "一蘭 アトレ上野山下口店",
    "area_id": "ueno",
    "genre": "ラーメン",
    "time_category": ["昼", "夜"],
    "hours": "24時間営業",
    "tags": ["サク飯", "一人OK", "深夜OK"],
    "address": "東京都台東区上野7-1-1 アトレ上野",
    "lat": 35.7137,
    "lng": 139.7769,
    "default_ai_summary": "アトレ上野内・24時間の個室風カウンター。山下口動線からサクッと入れる定番ラーメン。"
  },
  {
    "id": "matsuya-ueno",
    "legacy_id": 54,
    "name": "松屋 上野店",
    "area_id": "ueno",
    "genre": "カレー",
    "time_category": ["朝", "昼", "夜"],
    "hours": "24時間営業",
    "tags": ["サク飯", "一人OK", "朝飯OK", "深夜OK"],
    "address": "東京都台東区上野4-9-5 石井ビル1・2F",
    "lat": 35.7100,
    "lng": 139.7738,
    "default_ai_summary": "不忍口徒歩5分の24時間牛丼・カレー。エスパス本館・新館からの手軽な補給拠点。"
  },
  {
    "id": "gogocurry-ueno-okachimachi",
    "legacy_id": 55,
    "name": "ゴーゴーカレー 上野御徒町店",
    "area_id": "ueno",
    "genre": "カレー",
    "time_category": ["昼", "夜"],
    "hours": "10:55〜21:55（日祝20:55）",
    "tags": ["サク飯", "ガッツリ", "一人OK"],
    "address": "東京都台東区上野6-2-7 宮入ビル1F",
    "lat": 35.7085,
    "lng": 139.7754,
    "default_ai_summary": "御徒町北口徒歩2分の金沢カレー。キャベツ食放題・回転速く、アメ横ホール圏の定番。"
  },
  {
    "id": "yoshinoya-ueno-ekimae",
    "legacy_id": 56,
    "name": "吉野家 上野駅前店",
    "area_id": "ueno",
    "genre": "丼もの",
    "time_category": ["朝", "昼", "夜"],
    "hours": "4:00〜翌3:00",
    "tags": ["サク飯", "一人OK", "朝飯OK", "深夜OK"],
    "address": "東京都台東区上野7-3-2 ピナクルプロパティーズ上野駅前ビル1F",
    "lat": 35.7124,
    "lng": 139.7777,
    "default_ai_summary": "上野駅正面の牛丼。早朝4時開店で長時間稼働、駅前ホールからの最速丼候補。"
  },
  {
    "id": "mcdonalds-ueno-okachimachi",
    "legacy_id": 57,
    "name": "マクドナルド 上野御徒町店",
    "area_id": "ueno",
    "genre": "ハンバーガー",
    "time_category": ["朝", "昼", "夜"],
    "hours": "24時間営業",
    "tags": ["サク飯", "一人OK", "朝飯OK", "深夜OK"],
    "address": "東京都台東区上野4-4 B&Vビル2F・3F",
    "lat": 35.7084,
    "lng": 139.7734,
    "default_ai_summary": "上野御徒町駅至近の24時間ファストフード。アメ横・御徒町動線の最速軽食。"
  },
  {
    "id": "sutadonya-okachimachi",
    "legacy_id": 58,
    "name": "伝説のすた丼屋 御徒町店",
    "area_id": "ueno",
    "genre": "丼もの",
    "time_category": ["昼", "夜"],
    "hours": "11:00〜22:30（L.O. 22:00）",
    "tags": ["サク飯", "ガッツリ", "一人OK"],
    "address": "東京都台東区上野3-20-7 GYOTOC ONEビル1F",
    "lat": 35.7059,
    "lng": 139.7741,
    "default_ai_summary": "御徒町徒歩2分の名物すた丼。ニンニク効いたガッツリ丼で腹ごしらえに最適。"
  },
  {
    "id": "katsuya-okachimachi-minamiguchi",
    "legacy_id": 59,
    "name": "かつや 御徒町南口店",
    "area_id": "ueno",
    "genre": "とんかつ/カツ丼",
    "time_category": ["昼", "夜"],
    "hours": "10:00〜23:00",
    "tags": ["サク飯", "一人OK"],
    "address": "東京都台東区上野5-20-3",
    "lat": 35.7061,
    "lng": 139.7744,
    "default_ai_summary": "御徒町南口徒歩1分のかつ丼チェーン。提供が速く、楽園アメ横店からの手軽な定番飯。"
  },
  {
    "id": "yakiniku-like-ueno",
    "legacy_id": 60,
    "name": "焼肉ライク 上野店",
    "area_id": "ueno",
    "genre": "焼肉",
    "time_category": ["昼", "夜"],
    "hours": "10:00〜23:00（L.O. 22:30）",
    "tags": ["サク飯", "ガッツリ", "一人OK"],
    "address": "東京都台東区上野4-8-3 MD上野ビル1F・2F",
    "lat": 35.7093,
    "lng": 139.7737,
    "default_ai_summary": "上野広小路駅徒歩1分の一人焼肉専門。無煙ロースターで気軽にスタミナチャージできる。"
  },
  {
    "id": "kurasushi-okachimachi",
    "legacy_id": 61,
    "name": "くら寿司 御徒町店",
    "area_id": "ueno",
    "genre": "回転寿司",
    "time_category": ["昼", "夜"],
    "hours": "11:00〜23:00",
    "tags": ["サク飯", "一人OK"],
    "address": "東京都台東区台東4-33-1 クロスポイント御徒町2F",
    "lat": 35.7072,
    "lng": 139.7766,
    "default_ai_summary": "仲御徒町駅徒歩1分の回転寿司チェーン。コスパ良好でアメ横ホール圏からの軽食に使いやすい。"
  },
  {
    "id": "ichiran-shinbashi",
    "legacy_id": 62,
    "name": "一蘭 新橋店",
    "area_id": "shinbashi",
    "genre": "ラーメン",
    "time_category": ["昼", "夜"],
    "hours": "24時間営業",
    "tags": ["サク飯", "一人OK", "深夜OK"],
    "address": "東京都港区新橋2-5-6 2F",
    "lat": 35.6665,
    "lng": 139.7590,
    "default_ai_summary": "新橋駅日比谷口徒歩3分のとんこつラーメン専門。個室風カウンターで、烏森口ホール圏の定番サク飯。"
  },
  {
    "id": "naokichi-shinbashi",
    "legacy_id": 63,
    "name": "麺処直久 新橋店",
    "area_id": "shinbashi",
    "genre": "ラーメン",
    "time_category": ["昼", "夜"],
    "hours": "月〜金11:00〜23:00、土日祝11:00〜22:00",
    "tags": ["サク飯", "ガッツリ", "一人OK"],
    "address": "東京都港区新橋2 東口地下街1号 ウイング新橋",
    "lat": 35.6662,
    "lng": 139.7585,
    "default_ai_summary": "新橋駅東口地下街・徒歩1分の鶏出汁ラーメン。駅直結動線でBIGディッパー圏からの手軽な一杯。"
  },
  {
    "id": "gogocurry-shinbashi-ekimae",
    "legacy_id": 64,
    "name": "ゴーゴーカレー 新橋駅前パーク",
    "area_id": "shinbashi",
    "genre": "カレー",
    "time_category": ["昼", "夜"],
    "hours": "10:55〜22:55（L.O. 22:30）",
    "tags": ["サク飯", "ガッツリ", "一人OK"],
    "address": "東京都港区新橋2-17-6",
    "lat": 35.6668,
    "lng": 139.7582,
    "default_ai_summary": "新橋駅銀座口すぐの金沢カレー。キャベツ食放題・提供が速く、駅前ホール圏の定番。"
  },
  {
    "id": "moyan-curry-shinbashi",
    "legacy_id": 65,
    "name": "もうやんカレー新橋店",
    "area_id": "shinbashi",
    "genre": "カレー",
    "time_category": ["昼", "夜"],
    "hours": "11:30〜15:00、18:00〜23:00（L.O. 22:30）",
    "tags": ["サク飯", "ガッツリ", "一人OK"],
    "address": "東京都港区新橋2-15-12 セントラルビル B1F",
    "lat": 35.6663,
    "lng": 139.7578,
    "default_ai_summary": "新橋駅徒歩3分の薬膳スパイスカレー。ボリューム感があり、長時間稼働ホールからの腹ごしらえに向く。"
  },
  {
    "id": "katsuya-shinbashi",
    "legacy_id": 66,
    "name": "かつや 新橋店",
    "area_id": "shinbashi",
    "genre": "とんかつ/カツ丼",
    "time_category": ["昼", "夜"],
    "hours": "10:00〜23:00",
    "tags": ["サク飯", "一人OK"],
    "address": "東京都港区新橋2-16-1 ニュー新橋ビル",
    "lat": 35.6658,
    "lng": 139.7576,
    "default_ai_summary": "烏森口徒歩1分のかつ丼チェーン。提供が速く、新橋UNO・BIGディッパー圏の手軽な定番飯。"
  },
  {
    "id": "yoshinoya-shinbashi-higashi",
    "legacy_id": 67,
    "name": "吉野家 新橋東店",
    "area_id": "shinbashi",
    "genre": "丼もの",
    "time_category": ["朝", "昼", "夜"],
    "hours": "7:00〜23:00",
    "tags": ["サク飯", "一人OK", "朝飯OK"],
    "address": "東京都港区新橋2-18-5",
    "lat": 35.6661,
    "lng": 139.7589,
    "default_ai_summary": "新橋駅東口徒歩2分の牛丼。早朝7時開店で、出勤前・休憩の最速丼候補。"
  },
  {
    "id": "nadai-fujisoba-shinbashi-ekimae",
    "legacy_id": 68,
    "name": "名代 富士そば 新橋駅前店",
    "area_id": "shinbashi",
    "genre": "そば/うどん",
    "time_category": ["朝", "昼", "夜"],
    "hours": "24時間営業",
    "tags": ["サク飯", "一人OK", "朝飯OK", "深夜OK"],
    "address": "東京都港区新橋2-6-7 花菱ビル",
    "lat": 35.6664,
    "lng": 139.7574,
    "default_ai_summary": "新橋駅前・24時間の立ち食いそば。券売機で最速提供、駅前大型ホール圏の定番サク飯。"
  },
  {
    "id": "mcdonalds-shinbashi-hibiya",
    "legacy_id": 69,
    "name": "マクドナルド 新橋日比谷口店",
    "area_id": "shinbashi",
    "genre": "ハンバーガー",
    "time_category": ["朝", "昼", "夜"],
    "hours": "24時間営業",
    "tags": ["サク飯", "一人OK", "朝飯OK", "深夜OK"],
    "address": "東京都港区新橋2-10-12",
    "lat": 35.6666,
    "lng": 139.7570,
    "default_ai_summary": "新橋日比谷口・24時間のファストフード。駅直結動線からの最速軽食。"
  },
  {
    "id": "yakiniku-like-shinbashi-honkan",
    "legacy_id": 70,
    "name": "焼肉ライク 新橋本店",
    "area_id": "shinbashi",
    "genre": "焼肉",
    "time_category": ["朝", "昼", "夜"],
    "hours": "平日7:00〜23:00、土日祝8:00〜23:00（L.O. 22:30）",
    "tags": ["サク飯", "ガッツリ", "一人OK", "朝飯OK"],
    "address": "東京都港区新橋2-15-8 新橋W・Bビル 1F",
    "lat": 35.6663,
    "lng": 139.7567,
    "default_ai_summary": "烏森口徒歩1分の一人焼肉専門。無煙ロースターで気軽にスタミナチャージできる。"
  },
  {
    "id": "ichiban-kaiten-sushi-shinbashi",
    "legacy_id": 71,
    "name": "一番回転寿司 新橋店",
    "area_id": "shinbashi",
    "genre": "回転寿司",
    "time_category": ["昼", "夜"],
    "hours": "11:00〜23:00",
    "tags": ["サク飯", "一人OK"],
    "address": "東京都港区新橋2-16-1 ニュー新橋ビル",
    "lat": 35.6657,
    "lng": 139.7575,
    "default_ai_summary": "烏森口徒歩1分の回転寿司。コスパ良好で、新橋駅前ホール圏からの軽食に使いやすい。"
  },
  {
    "id": "ginza-soryu",
    "legacy_id": 72,
    "name": "銀座 創龍",
    "area_id": "yurakucho",
    "genre": "ラーメン",
    "time_category": ["昼", "夜"],
    "hours": "月〜土11:00〜翌3:00（L.O. 2:30）、日11:00〜23:00",
    "tags": ["サク飯", "ガッツリ", "一人OK", "深夜OK"],
    "address": "東京都中央区銀座6-4-18 マキシ・ド・ピアビル1F",
    "lat": 35.6728,
    "lng": 139.7645,
    "default_ai_summary": "有楽町駅徒歩3分の醤油ラーメン。深夜まで営業で、有楽町DUO・UNO圏の締め一杯に使いやすい。"
  },
  {
    "id": "ramen-ichiro-ginza",
    "legacy_id": 73,
    "name": "らーめん一郎",
    "area_id": "yurakucho",
    "genre": "ラーメン",
    "time_category": ["昼", "夜"],
    "hours": "平日・土11:00〜22:00（L.O. 21:40）、日・祝11:00〜21:00（L.O. 21:40）",
    "tags": ["サク飯", "ガッツリ", "一人OK"],
    "address": "東京都中央区銀座3-2-13 江戸常ビル B1F",
    "lat": 35.6735,
    "lng": 139.7640,
    "default_ai_summary": "有楽町駅徒歩2分の醤油つけ麺専門。青森産素材にこだわった一杯で、駅前ホール圏の定番。"
  },
  {
    "id": "moyan-curry-kyobashi",
    "legacy_id": 74,
    "name": "もうやんカレー 京橋店",
    "area_id": "yurakucho",
    "genre": "カレー",
    "time_category": ["昼", "夜"],
    "hours": "月〜土11:30〜15:00、月〜金18:00〜22:00（L.O. 21:30）、土18:00〜22:00（L.O. 21:30）",
    "tags": ["サク飯", "ガッツリ", "一人OK"],
    "address": "東京都中央区京橋3-1-1 東京スクエアガーデン B1F",
    "lat": 35.6768,
    "lng": 139.7700,
    "default_ai_summary": "京橋駅直結・有楽町駅徒歩6分の薬膳スパイスカレー。ボリューム感があり、長時間稼働ホールからの腹ごしらえに向く。"
  },
  {
    "id": "cocoichiworld-kyobashi-edogrand",
    "legacy_id": 75,
    "name": "CURRY HOUSE CoCoICHIBANYA WORLD 京橋エドグラン店",
    "area_id": "yurakucho",
    "genre": "カレー",
    "time_category": ["昼", "夜"],
    "hours": "11:00〜22:30（L.O. 22:00）",
    "tags": ["サク飯", "一人OK"],
    "address": "東京都中央区京橋2-2-1 京橋エドグラン B1F B05",
    "lat": 35.6765,
    "lng": 139.7695,
    "default_ai_summary": "京橋駅直結のCoCo壱番屋コンセプト店。有楽町駅徒歩8分圏で、銀座口ホールからの手軽なカレー候補。"
  },
  {
    "id": "akebono-yurakucho",
    "legacy_id": 76,
    "name": "あけぼの",
    "area_id": "yurakucho",
    "genre": "とんかつ/カツ丼",
    "time_category": ["昼", "夜"],
    "hours": "平日11:00〜15:00・17:00〜20:00、水・土・祝11:00〜16:00",
    "tags": ["サク飯", "ガッツリ", "一人OK"],
    "address": "東京都千代田区有楽町2-10-1 東京交通会館 B1F",
    "lat": 35.6749,
    "lng": 139.7628,
    "default_ai_summary": "有楽町駅徒歩1分・交通会館地下の老舗とんかつ。名物かつ丼はコスパ良好で、DUO・UNO圏の定番飯。"
  },
  {
    "id": "yoshinoya-yurakucho",
    "legacy_id": 77,
    "name": "吉野家 有楽町店",
    "area_id": "yurakucho",
    "genre": "丼もの",
    "time_category": ["朝", "昼", "夜"],
    "hours": "24時間営業",
    "tags": ["サク飯", "一人OK", "朝飯OK", "深夜OK"],
    "address": "東京都千代田区有楽町2-9-18",
    "lat": 35.6752,
    "lng": 139.7620,
    "default_ai_summary": "有楽町駅徒歩1分の牛丼。24時間営業で、出勤前・休憩の最速丼候補。"
  },
  {
    "id": "yomoda-soba-yurakucho",
    "legacy_id": 78,
    "name": "よもだそば 有楽町店",
    "area_id": "yurakucho",
    "genre": "そば/うどん",
    "time_category": ["朝", "昼", "夜"],
    "hours": "7:00〜23:00",
    "tags": ["サク飯", "一人OK", "朝飯OK"],
    "address": "東京都千代田区有楽町2-4-1",
    "lat": 35.6750,
    "lng": 139.7615,
    "default_ai_summary": "有楽町駅ガード下・朝7時から営業の立ち食いそば。券売機で最速提供、駅前ホール圏の定番サク飯。"
  },
  {
    "id": "mcdonalds-yurakucho-building",
    "legacy_id": 79,
    "name": "マクドナルド 有楽町ビルヂング店",
    "area_id": "yurakucho",
    "genre": "ハンバーガー",
    "time_category": ["朝", "昼", "夜"],
    "hours": "平日7:10〜22:15、土日祝7:10〜21:15",
    "tags": ["サク飯", "一人OK", "朝飯OK"],
    "address": "東京都千代田区有楽町1-10-1 有楽町ビルヂング B1F",
    "lat": 35.6755,
    "lng": 139.7610,
    "default_ai_summary": "有楽町駅日比谷口徒歩15秒のファストフード。朝マック対応で、駅前ホール圏の最速軽食。"
  },
  {
    "id": "yakiniku-daigo-yurakucho",
    "legacy_id": 80,
    "name": "醍醐 有楽町店",
    "area_id": "yurakucho",
    "genre": "焼肉",
    "time_category": ["昼", "夜"],
    "hours": "平日11:30〜14:30（L.O. 14:00）・17:00〜22:00（L.O. 21:30）、土日祝17:00〜22:00（L.O. 21:30）",
    "tags": ["サク飯", "ガッツリ", "一人OK"],
    "address": "東京都千代田区有楽町1-6-1 第2日比谷ビル4F",
    "lat": 35.6758,
    "lng": 139.7618,
    "default_ai_summary": "有楽町駅徒歩3分の黒毛和牛焼肉。ランチ定食が手頃で、駅前大型ホールからのスタミナ補給に向く。"
  },
  {
    "id": "kurasushi-ginza-flagship",
    "legacy_id": 81,
    "name": "くら寿司 グローバル旗艦店 銀座",
    "area_id": "yurakucho",
    "genre": "回転寿司",
    "time_category": ["昼", "夜"],
    "hours": "平日11:00〜23:00（L.O. 22:30）、土日10:20〜23:00（L.O. 22:30）",
    "tags": ["サク飯", "一人OK"],
    "address": "東京都中央区銀座3-2-1 マロニエゲート銀座2 7F",
    "lat": 35.6730,
    "lng": 139.7665,
    "default_ai_summary": "有楽町駅徒歩4分の回転寿司旗艦店。コスパ良好で、銀座口ホール圏からの軽食に使いやすい。"
  },
  {
    "id": "manchiken-kinshicho",
    "legacy_id": 82,
    "name": "中華そば 満鶏軒",
    "area_id": "kinshicho",
    "genre": "ラーメン",
    "time_category": ["昼", "夜"],
    "hours": "11:00〜21:00",
    "tags": ["サク飯", "ガッツリ", "一人OK"],
    "address": "東京都墨田区江東橋2-5-3",
    "lat": 35.6968,
    "lng": 139.8125,
    "default_ai_summary": "錦糸町駅南口徒歩6分の鴨出汁ラーメン。行列覚悟の人気店で、南口大型ホール圏のご褒美一杯。"
  },
  {
    "id": "hayashida-kinshicho",
    "legacy_id": 83,
    "name": "らぁ麺 はやし田 錦糸町店",
    "area_id": "kinshicho",
    "genre": "ラーメン",
    "time_category": ["昼", "夜"],
    "hours": "10:00〜23:00",
    "tags": ["サク飯", "ガッツリ", "一人OK"],
    "address": "東京都墨田区江東橋3-13-1 KS15ビル 1F",
    "lat": 35.6965,
    "lng": 139.8140,
    "default_ai_summary": "錦糸町駅徒歩1分の醤油ラーメンチェーン。駅直結動線で、みとや北口・はやし田圏の手軽な定番。"
  },
  {
    "id": "curry-alba-kinshicho",
    "legacy_id": 84,
    "name": "カレーの市民 アルバ 錦糸町店",
    "area_id": "kinshicho",
    "genre": "カレー",
    "time_category": ["昼", "夜"],
    "hours": "11:00〜22:00",
    "tags": ["サク飯", "ガッツリ", "一人OK"],
    "address": "東京都墨田区江東橋3-7-10",
    "lat": 35.6960,
    "lng": 139.8135,
    "default_ai_summary": "錦糸町駅南口徒歩4分の金沢カレー。満塁ホームランカレーなどボリュームメニューが充実。"
  },
  {
    "id": "cocoichi-kinshicho-minamiguchi",
    "legacy_id": 85,
    "name": "CoCo壱番屋 JR錦糸町駅南口店",
    "area_id": "kinshicho",
    "genre": "カレー",
    "time_category": ["昼", "夜"],
    "hours": "11:00〜24:00",
    "tags": ["サク飯", "一人OK", "深夜OK"],
    "address": "東京都墨田区江東橋3-7-9 CDビル 1F",
    "lat": 35.6959,
    "lng": 139.8133,
    "default_ai_summary": "錦糸町駅南口徒歩1分のカレーチェーン。深夜まで営業で、南口ホール圏の定番サク飯。"
  },
  {
    "id": "matsunoya-kinshicho",
    "legacy_id": 86,
    "name": "松のや 錦糸町店",
    "area_id": "kinshicho",
    "genre": "とんかつ/カツ丼",
    "time_category": ["朝", "昼", "夜"],
    "hours": "平日5:00〜翌1:00（L.O. 30分前）、日5:00〜23:30",
    "tags": ["サク飯", "一人OK", "朝飯OK", "深夜OK"],
    "address": "東京都墨田区江東橋3-9-15 第3魚寅ビル",
    "lat": 35.6961,
    "lng": 139.8130,
    "default_ai_summary": "錦糸町駅南口徒歩2分のとんかつチェーン。早朝5時開店で、ヒノマル・みとや南口圏の手軽な定番飯。"
  },
  {
    "id": "yoshinoya-kinshicho-kitaguchi",
    "legacy_id": 87,
    "name": "吉野家 錦糸町北口店",
    "area_id": "kinshicho",
    "genre": "丼もの",
    "time_category": ["朝", "昼", "夜"],
    "hours": "5:00〜翌2:00",
    "tags": ["サク飯", "一人OK", "朝飯OK", "深夜OK"],
    "address": "東京都墨田区錦糸2-4-10 ライオンズマンション錦糸町第3",
    "lat": 35.6972,
    "lng": 139.8145,
    "default_ai_summary": "錦糸町駅北口徒歩1分の牛丼。早朝5時開店で、みとや北口・Super D'station圏の最速丼候補。"
  },
  {
    "id": "yoshinoya-kinshicho-minamiguchi",
    "legacy_id": 88,
    "name": "吉野家 錦糸町南口店",
    "area_id": "kinshicho",
    "genre": "丼もの",
    "time_category": ["昼", "夜"],
    "hours": "24時間営業",
    "tags": ["サク飯", "一人OK", "深夜OK"],
    "address": "東京都墨田区江東橋3-14-13 サンライズビル",
    "lat": 35.6962,
    "lng": 139.8132,
    "default_ai_summary": "錦糸町駅南口徒歩1分の牛丼。24時間営業で、南口大型ホール圏の最速丼候補。"
  },
  {
    "id": "nadai-fujisoba-kinshicho",
    "legacy_id": 89,
    "name": "名代 富士そば 錦糸町店",
    "area_id": "kinshicho",
    "genre": "そば/うどん",
    "time_category": ["朝", "昼", "夜"],
    "hours": "24時間営業",
    "tags": ["サク飯", "一人OK", "朝飯OK", "深夜OK"],
    "address": "東京都墨田区江東橋3-13-1 KS15ビル 1F",
    "lat": 35.6964,
    "lng": 139.8141,
    "default_ai_summary": "錦糸町駅南口徒歩1分・24時間の立ち食いそば。券売機で最速提供、駅前ホール圏の定番サク飯。"
  },
  {
    "id": "mcdonalds-kinshicho-plaza",
    "legacy_id": 90,
    "name": "マクドナルド 錦糸町駅前プラザビル店",
    "area_id": "kinshicho",
    "genre": "ハンバーガー",
    "time_category": ["朝", "昼", "夜"],
    "hours": "24時間営業",
    "tags": ["サク飯", "一人OK", "朝飯OK", "深夜OK"],
    "address": "東京都墨田区江東橋3-8-7 錦糸町駅前プラザビル",
    "lat": 35.6964,
    "lng": 139.8129,
    "default_ai_summary": "錦糸町駅南口徒歩1分・24時間のファストフード。駅直結動線からの最速軽食。"
  },
  {
    "id": "yakiniku-like-kinshicho-kitaguchi",
    "legacy_id": 91,
    "name": "焼肉ライク 錦糸町北口店",
    "area_id": "kinshicho",
    "genre": "焼肉",
    "time_category": ["昼", "夜"],
    "hours": "10:00〜23:00（L.O. 22:30）",
    "tags": ["サク飯", "ガッツリ", "一人OK"],
    "address": "東京都墨田区錦糸3-4-9 ジョッコビル 2F",
    "lat": 35.6971,
    "lng": 139.8146,
    "default_ai_summary": "錦糸町駅北口徒歩2分の一人焼肉専門。無煙ロースターで気軽にスタミナチャージできる。"
  },
  {
    "id": "misaki-kinshicho-arcakit",
    "legacy_id": 92,
    "name": "回転寿司みさき アルカキット錦糸町",
    "area_id": "kinshicho",
    "genre": "回転寿司",
    "time_category": ["昼", "夜"],
    "hours": "11:00〜22:30（L.O. 閉店30分前）",
    "tags": ["サク飯", "一人OK"],
    "address": "東京都墨田区錦糸2-2-1 アルカキット錦糸町 10F",
    "lat": 35.6969,
    "lng": 139.8152,
    "default_ai_summary": "錦糸町駅北口徒歩2分の回転寿司。コスパ良好で、北口ホール圏からの軽食に使いやすい。"
  },
  {
    "id": "sukiya-kinshicho-koennomae",
    "legacy_id": 93,
    "name": "すき家 錦糸公園前店",
    "area_id": "kinshicho",
    "genre": "丼もの",
    "time_category": ["朝", "昼", "夜"],
    "hours": "4:00〜翌3:00（3:00〜4:00休業）",
    "tags": ["サク飯", "一人OK", "朝飯OK", "深夜OK"],
    "address": "東京都墨田区太平3-4-8 グレイスMM 1F",
    "lat": 35.6952,
    "lng": 139.8118,
    "default_ai_summary": "錦糸町駅徒歩5分の牛丼。早朝4時開店で、南口ホール圏からの手軽な丼候補。"
  },
  {
    "id": "senju-chashumen-kitasenju",
    "legacy_id": 94,
    "name": "千住 チャーシュー軒",
    "area_id": "kitasenju",
    "genre": "ラーメン",
    "time_category": ["昼", "夜"],
    "hours": "11:00〜翌4:00（金曜11:00〜翌7:00）",
    "tags": ["サク飯", "ガッツリ", "一人OK", "深夜OK"],
    "address": "東京都足立区千住2-64-1 北千住Village 1F",
    "lat": 35.7502,
    "lng": 139.8035,
    "default_ai_summary": "北千住駅西口徒歩1分のチャーシュー麺専門。深夜まで営業で、西口ホール圏のご褒美一杯。"
  },
  {
    "id": "takanome-kitasenju",
    "legacy_id": 95,
    "name": "ラーメン鷹の目 北千住店",
    "area_id": "kitasenju",
    "genre": "ラーメン",
    "time_category": ["昼", "夜"],
    "hours": "11:00〜15:00・17:00〜22:00",
    "tags": ["サク飯", "ガッツリ", "一人OK"],
    "address": "東京都足立区千住2-29",
    "lat": 35.7505,
    "lng": 139.8040,
    "default_ai_summary": "北千住駅西口徒歩4分の二郎系ラーメン。サンロード商店街脇で、コンサートホール圏のガッツリ飯。"
  },
  {
    "id": "matsuya-kitasenju",
    "legacy_id": 96,
    "name": "松屋 北千住店（マイカリー食堂併設）",
    "area_id": "kitasenju",
    "genre": "カレー",
    "time_category": ["朝", "昼", "夜"],
    "hours": "24時間営業（マイカリー食堂は8:00〜24:00）",
    "tags": ["サク飯", "一人OK", "朝飯OK", "深夜OK"],
    "address": "東京都足立区千住2-61",
    "lat": 35.7500,
    "lng": 139.8038,
    "default_ai_summary": "北千住駅西口徒歩1分の牛丼・カレー。24時間営業で、ピーアーク・マルイ圏の最速補給拠点。"
  },
  {
    "id": "ippekoppe-kitasenju",
    "legacy_id": 97,
    "name": "とんかつ檍のカレー屋 いっぺこっぺ 北千住店",
    "area_id": "kitasenju",
    "genre": "カレー",
    "time_category": ["昼", "夜"],
    "hours": "11:00〜21:00",
    "tags": ["サク飯", "ガッツリ", "一人OK"],
    "address": "東京都足立区千住旭町40-27 ビックリヤ旭町ビル 1F",
    "lat": 35.7492,
    "lng": 139.8065,
    "default_ai_summary": "北千住駅東口徒歩1分のカツカレー専門。檍系列のボリュームメニューで、東口ホール圏の定番。"
  },
  {
    "id": "katsuya-kitasenju-nishiguchi",
    "legacy_id": 98,
    "name": "かつや 北千住西口店",
    "area_id": "kitasenju",
    "genre": "とんかつ/カツ丼",
    "time_category": ["朝", "昼", "夜"],
    "hours": "平日8:00〜22:30（L.O. 22:00）、土日祝10:00〜22:30（L.O. 22:00）",
    "tags": ["サク飯", "一人OK", "朝飯OK"],
    "address": "東京都足立区千住2-55",
    "lat": 35.7501,
    "lng": 139.8036,
    "default_ai_summary": "北千住駅西口徒歩1分のかつ丼チェーン。早朝8時開店で、西口大型ホールからの手軽な定番飯。"
  },
  {
    "id": "yoshinoya-kitasenju-honcho",
    "legacy_id": 99,
    "name": "吉野家 北千住本町商店街店",
    "area_id": "kitasenju",
    "genre": "丼もの",
    "time_category": ["朝", "昼", "夜"],
    "hours": "7:00〜23:00",
    "tags": ["サク飯", "一人OK", "朝飯OK"],
    "address": "東京都足立区千住2-31",
    "lat": 35.7503,
    "lng": 139.8040,
    "default_ai_summary": "北千住駅西口徒歩1分の牛丼。朝7時開店で、宿場町通り・西口ホール圏の最速丼候補。"
  },
  {
    "id": "yoshinoya-ekia-kitasenju",
    "legacy_id": 100,
    "name": "吉野家 エキア北千住店",
    "area_id": "kitasenju",
    "genre": "丼もの",
    "time_category": ["昼", "夜"],
    "hours": "10:00〜22:00",
    "tags": ["サク飯", "一人OK"],
    "address": "東京都足立区千住旭町42-1 エキア北千住",
    "lat": 35.7495,
    "lng": 139.8050,
    "default_ai_summary": "北千住駅東口・エキア北千住内の牛丼。改札直結動線で、ピーアークSSS圏の手軽な定番飯。"
  },
  {
    "id": "sukiya-kitasenju-nishiguchi",
    "legacy_id": 101,
    "name": "すき家 北千住西口店",
    "area_id": "kitasenju",
    "genre": "丼もの",
    "time_category": ["昼", "夜"],
    "hours": "24時間営業",
    "tags": ["サク飯", "一人OK", "深夜OK"],
    "address": "東京都足立区千住3-1-10",
    "lat": 35.7505,
    "lng": 139.8030,
    "default_ai_summary": "北千住駅西口徒歩7分の牛丼。24時間営業で、コンサートホール圏からの手軽な丼候補。"
  },
  {
    "id": "nadai-fujisoba-kitasenju",
    "legacy_id": 102,
    "name": "名代 富士そば 北千住店",
    "area_id": "kitasenju",
    "genre": "そば/うどん",
    "time_category": ["朝", "昼", "夜"],
    "hours": "24時間営業",
    "tags": ["サク飯", "一人OK", "朝飯OK", "深夜OK"],
    "address": "東京都足立区千住2-61",
    "lat": 35.7500,
    "lng": 139.8039,
    "default_ai_summary": "北千住駅西口徒歩1分・24時間の立ち食いそば。券売機で最速提供、マルイ・ピーアーク圏の定番サク飯。"
  },
  {
    "id": "mcdonalds-kitasenju-nishiguchi",
    "legacy_id": 103,
    "name": "マクドナルド 北千住西口店",
    "area_id": "kitasenju",
    "genre": "ハンバーガー",
    "time_category": ["朝", "昼", "夜"],
    "hours": "24時間営業",
    "tags": ["サク飯", "一人OK", "朝飯OK", "深夜OK"],
    "address": "東京都足立区千住2-62",
    "lat": 35.7500,
    "lng": 139.8034,
    "default_ai_summary": "北千住駅西口広場直結のファストフード。24時間営業で、西口ホール圏の最速軽食。"
  },
  {
    "id": "yakiniku-like-kitasenju",
    "legacy_id": 104,
    "name": "焼肉ライク 北千住店",
    "area_id": "kitasenju",
    "genre": "焼肉",
    "time_category": ["昼", "夜"],
    "hours": "11:00〜23:00（L.O. 22:30）",
    "tags": ["サク飯", "ガッツリ", "一人OK"],
    "address": "東京都足立区千住2-26 やよいビル 1F",
    "lat": 35.7504,
    "lng": 139.8042,
    "default_ai_summary": "北千住駅徒歩5分の一人焼肉専門。無煙ロースターで気軽にスタミナチャージできる。"
  },
  {
    "id": "misaki-ekia-kitasenju",
    "legacy_id": 105,
    "name": "回転寿司みさき エキア北千住",
    "area_id": "kitasenju",
    "genre": "回転寿司",
    "time_category": ["朝", "昼", "夜"],
    "hours": "7:00〜23:00（L.O. 22:30、11:00〜通常営業）",
    "tags": ["サク飯", "一人OK", "朝飯OK"],
    "address": "東京都足立区千住旭町42-1 東武北千住駅改札内2F",
    "lat": 35.7495,
    "lng": 139.8051,
    "default_ai_summary": "北千住駅東口・改札内2階の回転寿司。早朝7時から営業で、東口ホール圏からの軽食に使いやすい。"
  },
  {
    "id": "kuraku-equia-kitasenju",
    "legacy_id": 106,
    "name": "北海道らーめん奥原流 久楽 EQUiA北千住店",
    "area_id": "kitasenju",
    "genre": "ラーメン",
    "time_category": ["朝", "昼", "夜"],
    "hours": "7:00〜23:00（L.O. 22:30）",
    "tags": ["サク飯", "一人OK", "朝飯OK"],
    "address": "東京都足立区千住旭町42-1 東武北千住駅2Fコンコース内",
    "lat": 35.7496,
    "lng": 139.8052,
    "default_ai_summary": "北千住駅構内・早朝7時から営業の味噌ラーメン。改札直結で、ターミナル各ホールからの手軽な一杯。"
  },
  {
    "id": "ichiran-machida",
    "legacy_id": 107,
    "name": "一蘭 町田店",
    "area_id": "machida",
    "genre": "ラーメン",
    "time_category": ["昼", "夜"],
    "hours": "24時間営業",
    "tags": ["サク飯", "一人OK", "深夜OK"],
    "address": "東京都町田市原町田6-19-15 大星ビル 1F",
    "lat": 35.5423,
    "lng": 139.4475,
    "default_ai_summary": "町田駅北口徒歩3分のとんこつラーメン。24時間営業で、楽園・PIA圏の個室風カウンター定番。"
  },
  {
    "id": "hayashida-machida",
    "legacy_id": 108,
    "name": "らぁ麺 はやし田 町田店",
    "area_id": "machida",
    "genre": "ラーメン",
    "time_category": ["昼", "夜"],
    "hours": "11:00〜23:00（金・土・祝前日は28:00）",
    "tags": ["サク飯", "ガッツリ", "一人OK", "深夜OK"],
    "address": "東京都町田市原町田6-11-13 ホンタマビル 1F",
    "lat": 35.5419,
    "lng": 139.4470,
    "default_ai_summary": "小田急町田駅徒歩2分の醤油ラーメン。深夜まで営業で、駅前大型ホール圏の手軽な定番一杯。"
  },
  {
    "id": "matsuya-machida",
    "legacy_id": 109,
    "name": "松屋 町田店",
    "area_id": "machida",
    "genre": "カレー",
    "time_category": ["朝", "昼", "夜"],
    "hours": "4:00〜翌2:00（L.O. 15分前）",
    "tags": ["サク飯", "一人OK", "朝飯OK", "深夜OK"],
    "address": "東京都町田市原町田4-4-15",
    "lat": 35.5420,
    "lng": 139.4480,
    "default_ai_summary": "町田駅南口徒歩2分の牛丼・カレー。早朝4時開店で、ともえ609・ターミナルロード圏の最速補給拠点。"
  },
  {
    "id": "cocoichi-machida-nakamachi",
    "legacy_id": 110,
    "name": "カレーハウスCoCo壱番屋 町田中町店",
    "area_id": "machida",
    "genre": "カレー",
    "time_category": ["昼", "夜"],
    "hours": "11:00〜24:00",
    "tags": ["サク飯", "一人OK", "深夜OK"],
    "address": "東京都町田市中町1-16-11 WING町田 1F",
    "lat": 35.5435,
    "lng": 139.4455,
    "default_ai_summary": "町田駅徒歩7分のカレーチェーン。深夜まで営業で、北口ホール圏からの手軽なカレー候補。"
  },
  {
    "id": "matsunoya-machida",
    "legacy_id": 111,
    "name": "松のや 町田店",
    "area_id": "machida",
    "genre": "とんかつ/カツ丼",
    "time_category": ["昼", "夜"],
    "hours": "9:00〜23:30（L.O. 23:00）",
    "tags": ["サク飯", "一人OK"],
    "address": "東京都町田市原町田4-4-14",
    "lat": 35.5419,
    "lng": 139.4480,
    "default_ai_summary": "町田駅徒歩4分のとんかつチェーン。揚げたて定食が手頃で、南口・ターミナルロード圏の定番飯。"
  },
  {
    "id": "yoshinoya-odakyu-machida-minamiguchi",
    "legacy_id": 112,
    "name": "吉野家 小田急町田駅南口店",
    "area_id": "machida",
    "genre": "丼もの",
    "time_category": ["朝", "昼", "夜"],
    "hours": "24時間営業",
    "tags": ["サク飯", "一人OK", "朝飯OK", "深夜OK"],
    "address": "東京都町田市原町田6-11-7",
    "lat": 35.5417,
    "lng": 139.4468,
    "default_ai_summary": "小田急町田駅南口徒歩1分の牛丼。24時間営業で、楽園・駅前ホール圏の最速丼候補。"
  },
  {
    "id": "sukiya-machida-minamiguchi",
    "legacy_id": 113,
    "name": "すき家 JR町田駅南口店",
    "area_id": "machida",
    "genre": "丼もの",
    "time_category": ["朝", "昼", "夜"],
    "hours": "4:00〜翌3:00（3:00〜4:00休業）",
    "tags": ["サク飯", "一人OK", "朝飯OK", "深夜OK"],
    "address": "東京都町田市原町田1-2-6 第2ひろせビル 1F",
    "lat": 35.5408,
    "lng": 139.4462,
    "default_ai_summary": "JR町田駅南口徒歩3分の牛丼。早朝4時開店で、ともえ609・南口ホール圏の手軽な丼候補。"
  },
  {
    "id": "nadai-fujisoba-machida",
    "legacy_id": 114,
    "name": "名代 富士そば 町田店",
    "area_id": "machida",
    "genre": "そば/うどん",
    "time_category": ["朝", "昼", "夜"],
    "hours": "4:00〜翌3:00",
    "tags": ["サク飯", "一人OK", "朝飯OK", "深夜OK"],
    "address": "東京都町田市森野1-37-1 POPビル 1F",
    "lat": 35.5438,
    "lng": 139.4458,
    "default_ai_summary": "町田駅北口徒歩3分・早朝4時から営業の立ち食いそば。券売機で最速提供、北口ホール圏の定番サク飯。"
  },
  {
    "id": "mcdonalds-machida-ekimae",
    "legacy_id": 115,
    "name": "マクドナルド 町田駅前店",
    "area_id": "machida",
    "genre": "ハンバーガー",
    "time_category": ["朝", "昼", "夜"],
    "hours": "24時間営業（1:00〜5:00はお持ち帰りのみ）",
    "tags": ["サク飯", "一人OK", "朝飯OK", "深夜OK"],
    "address": "東京都町田市原町田6-6-14",
    "lat": 35.5416,
    "lng": 139.4472,
    "default_ai_summary": "町田駅前・町田ジョルナ直結のファストフード。24時間営業で、駅前大型ホール圏の最速軽食。"
  },
  {
    "id": "yakiniku-king-machida-ekimae",
    "legacy_id": 116,
    "name": "焼肉きんぐ 町田駅前店",
    "area_id": "machida",
    "genre": "焼肉",
    "time_category": ["昼", "夜"],
    "hours": "11:00〜23:00（最終入店22:00）",
    "tags": ["サク飯", "ガッツリ", "一人OK"],
    "address": "東京都町田市原町田4-11-14 コロンブスビル B1F",
    "lat": 35.5415,
    "lng": 139.4460,
    "default_ai_summary": "町田駅徒歩3分の食べ放題焼肉。2026年オープンの駅前店で、楽園・ともえ圏のスタミナ補給に向く。"
  },
  {
    "id": "kurasushi-machida-jorna",
    "legacy_id": 117,
    "name": "くら寿司 町田ジョルナ店",
    "area_id": "machida",
    "genre": "回転寿司",
    "time_category": ["昼", "夜"],
    "hours": "平日11:00〜23:00、土日祝10:30〜23:00（L.O. 閉店30分前）",
    "tags": ["サク飯", "一人OK"],
    "address": "東京都町田市原町田6-6-14 町田ジョルナ B2F",
    "lat": 35.5416,
    "lng": 139.4473,
    "default_ai_summary": "町田駅徒歩2分の回転寿司。ジョルナ地下2階で、PIA・楽園圏からの軽食に使いやすい。"
  },
  {
    "id": "shioramen-shinka-machida-ekimae",
    "legacy_id": 118,
    "name": "町田汁場 しおらーめん 進化 町田駅前店",
    "area_id": "machida",
    "genre": "ラーメン",
    "time_category": ["昼", "夜"],
    "hours": "11:00〜15:00・17:30〜22:00",
    "tags": ["サク飯", "ガッツリ", "一人OK"],
    "address": "東京都町田市原町田4-6-15 1F",
    "lat": 35.5414,
    "lng": 139.4465,
    "default_ai_summary": "町田駅ターミナル口徒歩2分の塩ラーメン。進化系列の人気味で、駅前ホール圏のご褒美一杯。"
  },
  {
    "id": "sushiro-machida-kitaguchi",
    "legacy_id": 119,
    "name": "スシロー 町田北口店",
    "area_id": "machida",
    "genre": "回転寿司",
    "time_category": ["昼", "夜"],
    "hours": "平日11:00〜23:00、土日祝10:30〜23:00（L.O. 閉店30分前）",
    "tags": ["サク飯", "一人OK"],
    "address": "東京都町田市森野1-39-16 リード町田ビル 1F",
    "lat": 35.5436,
    "lng": 139.4455,
    "default_ai_summary": "小田急町田駅北口徒歩1分の回転寿司。コスパ良好で、北口大型ホール圏からの手軽な軽食。"
  },
  {
    "id": "ichiran-tachikawa",
    "legacy_id": 120,
    "name": "一蘭 立川店",
    "area_id": "tachikawa",
    "genre": "ラーメン",
    "time_category": ["昼", "夜"],
    "hours": "24時間営業",
    "tags": ["サク飯", "一人OK", "深夜OK"],
    "address": "東京都立川市錦町1-3-3",
    "lat": 35.6970,
    "lng": 139.4157,
    "default_ai_summary": "立川駅徒歩3分のとんこつラーメン。24時間営業で、南口大型ホール圏の個室風カウンター定番。"
  },
  {
    "id": "menderu-tachikawa",
    "legacy_id": 121,
    "name": "自家製麺 麺でる 立川店",
    "area_id": "tachikawa",
    "genre": "ラーメン",
    "time_category": ["昼", "夜"],
    "hours": "11:00〜15:00・17:30〜22:00",
    "tags": ["サク飯", "ガッツリ", "一人OK"],
    "address": "東京都立川市錦町1-2-13 中島ビル 1F",
    "lat": 35.6968,
    "lng": 139.4148,
    "default_ai_summary": "立川駅南口徒歩4分の二郎系ラーメン。南口ホール激戦区の人気店で、ボリューム重視の一杯に向く。"
  },
  {
    "id": "matsuya-tachikawa-shibasakicho",
    "legacy_id": 122,
    "name": "松屋 立川柴崎町店",
    "area_id": "tachikawa",
    "genre": "カレー",
    "time_category": ["朝", "昼", "夜"],
    "hours": "24時間営業",
    "tags": ["サク飯", "一人OK", "朝飯OK", "深夜OK"],
    "address": "東京都立川市柴崎町6-10-8",
    "lat": 35.6965,
    "lng": 139.4180,
    "default_ai_summary": "立川駅南口徒歩5分の牛丼・カレー。24時間営業で、楽園・プレゴ圏の最速補給拠点。"
  },
  {
    "id": "cocoichi-tachikawa-minamiguchi",
    "legacy_id": 123,
    "name": "カレーハウスCoCo壱番屋 JR立川駅南口店",
    "area_id": "tachikawa",
    "genre": "カレー",
    "time_category": ["昼", "夜"],
    "hours": "11:00〜24:00",
    "tags": ["サク飯", "一人OK", "深夜OK"],
    "address": "東京都立川市錦町2-2-2 下田ビル 1F",
    "lat": 35.6975,
    "lng": 139.4150,
    "default_ai_summary": "立川駅南口徒歩2分のカレーチェーン。深夜まで営業で、ジアス・プレゴ圏の定番サク飯。"
  },
  {
    "id": "matsunoya-tachikawa-shibasakicho",
    "legacy_id": 124,
    "name": "松のや 立川柴崎町店",
    "area_id": "tachikawa",
    "genre": "とんかつ/カツ丼",
    "time_category": ["朝", "昼", "夜"],
    "hours": "8:00〜22:00（L.O. 21:30）",
    "tags": ["サク飯", "一人OK", "朝飯OK"],
    "address": "東京都立川市柴崎町6-10-8",
    "lat": 35.6965,
    "lng": 139.4180,
    "default_ai_summary": "立川駅南口徒歩5分のとんかつチェーン。松屋併設で早朝8時から営業、南口ホール圏の定番飯。"
  },
  {
    "id": "katsuya-tachikawa-kitaguchi",
    "legacy_id": 125,
    "name": "かつや 立川北口店",
    "area_id": "tachikawa",
    "genre": "とんかつ/カツ丼",
    "time_category": ["昼", "夜"],
    "hours": "10:30〜23:30（L.O. 23:00）",
    "tags": ["サク飯", "一人OK"],
    "address": "東京都立川市曙町2-2-25 立川タクロス 1F",
    "lat": 35.6995,
    "lng": 139.4128,
    "default_ai_summary": "立川駅北口徒歩2分のとんかつチェーン。揚げたて定食が手頃で、D'station圏の定番飯。"
  },
  {
    "id": "yoshinoya-tachikawa-kitaguchi",
    "legacy_id": 126,
    "name": "吉野家 立川駅北口店",
    "area_id": "tachikawa",
    "genre": "丼もの",
    "time_category": ["朝", "昼", "夜"],
    "hours": "24時間営業",
    "tags": ["サク飯", "一人OK", "朝飯OK", "深夜OK"],
    "address": "東京都立川市曙町2-6-5",
    "lat": 35.6998,
    "lng": 139.4125,
    "default_ai_summary": "立川駅北口徒歩1分の牛丼。24時間営業で、D'station・北口デッキ圏の最速丼候補。"
  },
  {
    "id": "tenya-tachikawa-kitaguchi",
    "legacy_id": 127,
    "name": "天丼てんや 立川店",
    "area_id": "tachikawa",
    "genre": "丼もの",
    "time_category": ["昼", "夜"],
    "hours": "11:00〜22:00（L.O. 閉店30分前）",
    "tags": ["サク飯", "一人OK"],
    "address": "東京都立川市曙町2-5-18 第一東財曙ビル 1・2階",
    "lat": 35.7001,
    "lng": 139.4135,
    "default_ai_summary": "立川駅北口徒歩3分の天丼チェーン。揚げたて天丼が手軽で、北口ホール圏のサク飯候補。"
  },
  {
    "id": "nadai-fujisoba-tachikawa",
    "legacy_id": 128,
    "name": "名代 富士そば 立川店",
    "area_id": "tachikawa",
    "genre": "そば/うどん",
    "time_category": ["朝", "昼", "夜"],
    "hours": "24時間営業",
    "tags": ["サク飯", "一人OK", "朝飯OK", "深夜OK"],
    "address": "東京都立川市曙町2-11-2 フロム中武 1F",
    "lat": 35.6997,
    "lng": 139.4120,
    "default_ai_summary": "立川駅北口徒歩3分・24時間の立ち食いそば。券売機で最速提供、D'station圏の定番サク飯。"
  },
  {
    "id": "mcdonalds-tachikawa-minamiguchi",
    "legacy_id": 129,
    "name": "マクドナルド 立川駅南口店",
    "area_id": "tachikawa",
    "genre": "ハンバーガー",
    "time_category": ["朝", "昼", "夜"],
    "hours": "24時間営業",
    "tags": ["サク飯", "一人OK", "朝飯OK", "深夜OK"],
    "address": "東京都立川市柴崎町3-2-1",
    "lat": 35.6978,
    "lng": 139.4140,
    "default_ai_summary": "立川駅南口徒歩1分のファストフード。24時間営業で、楽園・プレゴ圏の最速軽食。"
  },
  {
    "id": "yakiniku-like-tachikawa-minamiguchi",
    "legacy_id": 130,
    "name": "焼肉ライク 立川南口店",
    "area_id": "tachikawa",
    "genre": "焼肉",
    "time_category": ["昼", "夜"],
    "hours": "10:00〜23:00（L.O. 22:30）",
    "tags": ["サク飯", "ガッツリ", "一人OK"],
    "address": "東京都立川市柴崎町3-7-24",
    "lat": 35.6971,
    "lng": 139.4146,
    "default_ai_summary": "立川駅南口徒歩1分の一人焼肉専門。無煙ロースターで気軽にスタミナチャージできる。"
  },
  {
    "id": "sushiro-tachikawa-minamiguchi",
    "legacy_id": 131,
    "name": "スシロー 立川駅南口店",
    "area_id": "tachikawa",
    "genre": "回転寿司",
    "time_category": ["昼", "夜"],
    "hours": "平日11:00〜23:00、土日祝10:30〜23:00（L.O. 閉店30分前）",
    "tags": ["サク飯", "一人OK"],
    "address": "東京都立川市柴崎町3-4-10 小川ビル 2F",
    "lat": 35.6974,
    "lng": 139.4148,
    "default_ai_summary": "立川駅南口徒歩4分の回転寿司。コスパ良好で、南口大型ホール圏からの手軽な軽食。"
  }
]
