[
  {
    "id": "honda-akihabara",
    "legacy_id": 1,
    "name": "麺処 ほん田 秋葉原本店",
    "area_id": "akihabara",
    "genre": "ラーメン",
    "time_category": ["昼", "夜"],
    "hours": "11:30〜15:00、18:00〜21:00",
    "tags": ["ガッツリ", "一人OK"],
    "address": "東京都千代田区外神田3-7-2",
    "lat": 35.7016,
    "lng": 139.7704,
    "default_ai_summary": "都内屈指の有名店。並びは激しいが、大勝ちした日の最高のご褒美麺として完璧なクオリティ。"
  },
  {
    "id": "aoshima-shokudo-akihabara",
    "legacy_id": 2,
    "name": "青島食堂 秋葉原店",
    "area_id": "akihabara",
    "genre": "ラーメン",
    "time_category": ["昼", "夜"],
    "hours": "11:00〜21:00",
    "tags": ["ガッツリ", "一人OK"],
    "address": "東京都千代田区神田須田町2-12-5",
    "lat": 35.6948,
    "lng": 139.7720,
    "default_ai_summary": "新潟・長岡発祥の生姜醤油ラーメンの名店。あっさり系ながら旨味が濃く、軍資金を使い切った後のリセット飯としても重宝する。"
  },
  {
    "id": "ramen-waizu-akihabara",
    "legacy_id": 3,
    "name": "秋葉原 ラーメン わいず",
    "area_id": "akihabara",
    "genre": "ラーメン",
    "time_category": ["昼", "夜"],
    "hours": "10:30〜22:00",
    "tags": ["サク飯", "ガッツリ", "一人OK"],
    "address": "東京都千代田区外神田3-2-13",
    "lat": 35.7000,
    "lng": 139.7707,
    "default_ai_summary": "濃厚でガツンとくる家系ラーメン。終日営業しているため、どの時間帯の休憩でも立ち寄りやすい。"
  },
  {
    "id": "hakata-furyu-akihabara",
    "legacy_id": 4,
    "name": "博多風龍 秋葉原総本店",
    "area_id": "akihabara",
    "genre": "ラーメン",
    "time_category": ["昼", "夜"],
    "hours": "11:00〜翌2:00",
    "tags": ["サク飯", "ガッツリ", "一人OK", "深夜OK"],
    "address": "東京都千代田区外神田1-10-11",
    "lat": 35.6985,
    "lng": 139.7716,
    "default_ai_summary": "電気街口側にある、爆速提供＋替玉2玉無料の定番ラーメン店。一人サク飯にも勝った日のご褒美にも使いやすい。"
  },
  {
    "id": "curry-wa-nomimono-akihabara",
    "legacy_id": 5,
    "name": "カレーは飲み物。秋葉原店",
    "area_id": "akihabara",
    "genre": "カレー",
    "time_category": ["昼", "夜"],
    "hours": "11:00〜16:00、17:30〜21:30",
    "tags": ["サク飯", "ガッツリ", "一人OK"],
    "address": "東京都千代田区外神田3-10-5",
    "lat": 35.7016,
    "lng": 139.7720,
    "default_ai_summary": "トッピングが3つ選べる濃厚カレー。提供スピードが早く、ガッツリ食べてすぐホールに戻りたい時に最適。"
  },
  {
    "id": "curry-no-shimin-alba-akihabara",
    "legacy_id": 6,
    "name": "カレーの市民 アルバ 秋葉原本店",
    "area_id": "akihabara",
    "genre": "カレー",
    "time_category": ["昼", "夜"],
    "hours": "11:00〜21:30",
    "tags": ["サク飯", "ガッツリ", "一人OK"],
    "address": "東京都千代田区外神田1-6-7",
    "lat": 35.6985,
    "lng": 139.7708,
    "default_ai_summary": "秋葉原駅電気街口の裏手、サボニウス広場近く。濃厚な金沢カレーで、サクッとエネルギー補給をするのに便利。"
  },
  {
    "id": "karigari-akihabara",
    "legacy_id": 7,
    "name": "カリガリ 秋葉原",
    "area_id": "akihabara",
    "genre": "カレー",
    "time_category": ["昼", "夜"],
    "hours": "11:30〜23:00",
    "tags": ["一人OK", "深夜OK"],
    "address": "東京都千代田区外神田6-14-2",
    "lat": 35.7044,
    "lng": 139.7702,
    "default_ai_summary": "神田カレーグランプリ優勝店。お洒落な空間ながら、スパイスの効いたカレーで脳をリフレッシュできる。"
  },
  {
    "id": "marugo",
    "legacy_id": 8,
    "name": "丸五",
    "area_id": "akihabara",
    "genre": "とんかつ/カツ丼",
    "time_category": ["昼", "夜"],
    "hours": "11:30〜14:00、17:00〜20:00",
    "tags": ["ガッツリ", "一人OK"],
    "address": "東京都千代田区外神田1-8-14",
    "lat": 35.6993,
    "lng": 139.7716,
    "default_ai_summary": "行列必至のミシュラン掲載店。「勝負に勝つ」ゲン担ぎや、大勝利した日の贅沢ディナーにふさわしい名店。"
  },
  {
    "id": "tonkatsu-aoki-akihabara",
    "legacy_id": 9,
    "name": "とんかつ 檍 秋葉原店",
    "area_id": "akihabara",
    "genre": "とんかつ/カツ丼",
    "time_category": ["昼", "夜"],
    "hours": "11:00〜15:00、17:00〜21:00",
    "tags": ["ガッツリ", "一人OK"],
    "address": "東京都千代田区外神田3-6-4",
    "lat": 35.7010,
    "lng": 139.7706,
    "default_ai_summary": "レア気味に揚げられた極厚のSPF豚が絶品。軍資金に余裕がある時の贅沢飯としておすすめ。"
  },
  {
    "id": "nadai-fujisoba-akihabara-denkigai",
    "legacy_id": 10,
    "name": "名代 富士そば 秋葉原電気街店",
    "area_id": "akihabara",
    "genre": "そば/うどん",
    "time_category": ["朝", "昼", "夜"],
    "hours": "24時間営業",
    "tags": ["サク飯", "一人OK", "深夜OK", "朝飯OK"],
    "address": "東京都千代田区外神田1-15-18",
    "lat": 35.6986,
    "lng": 139.7727,
    "default_ai_summary": "秋葉原駅電気街口の目の前。24時間営業のため、抽選前の朝食から閉店後の夜食までいつでも使える絶対的安心感。"
  },
  {
    "id": "komoro-soba-akihabara",
    "legacy_id": 11,
    "name": "小諸そば 秋葉原店",
    "area_id": "akihabara",
    "genre": "そば/うどん",
    "time_category": ["朝", "昼", "夜"],
    "hours": "6:30〜22:00",
    "tags": ["サク飯", "一人OK", "朝飯OK"],
    "address": "東京都千代田区外神田1-8-13",
    "lat": 35.6993,
    "lng": 139.7714,
    "default_ai_summary": "安くて早くて旨い立ち食いそば。並びから実食まで10分以内で完結するため、短時間の昼休憩に重宝する。"
  },
  {
    "id": "sutadonya-akihabara",
    "legacy_id": 12,
    "name": "すた丼屋 秋葉原店",
    "area_id": "akihabara",
    "genre": "丼もの",
    "time_category": ["昼", "夜"],
    "hours": "11:00〜23:00",
    "tags": ["サク飯", "ガッツリ", "一人OK", "深夜OK"],
    "address": "東京都千代田区外神田4-4-3",
    "lat": 35.7026,
    "lng": 139.7720,
    "default_ai_summary": "ジャンクでニンニクの効いた伝説のすた丼。圧倒的スピード提供と強烈な塩分・総カロリーで、疲れた脳に活力を注入できる。"
  },
  {
    "id": "roast-beef-ohno-akihabara",
    "legacy_id": 13,
    "name": "ローストビーフ大野 秋葉原店",
    "area_id": "akihabara",
    "genre": "丼もの",
    "time_category": ["昼", "夜"],
    "hours": "11:00〜22:00",
    "tags": ["ガッツリ", "一人OK"],
    "address": "東京都千代田区外神田1-10-5",
    "lat": 35.6991,
    "lng": 139.7720,
    "default_ai_summary": "秋葉原駅近くの山盛りローストビーフ丼店。終日並びが激しいため、時間に余裕がある時の贅沢向け。"
  },
  {
    "id": "niku-no-mansei-akihabara",
    "legacy_id": 14,
    "name": "肉の万世 秋葉原本店",
    "area_id": "akihabara",
    "genre": "丼もの",
    "time_category": ["昼", "夜"],
    "hours": "11:00〜22:00",
    "tags": ["ガッツリ"],
    "address": "東京都千代田区神田須田町2-21",
    "lat": 35.6961,
    "lng": 139.7715,
    "default_ai_summary": "秋葉原の肉の聖地。ボリューム満点の万かつサンドのテイクアウトや、パチスロ大勝ち時の「万枚祝い」のディナーに最適。"
  },
  {
    "id": "okamuraya-akihabara",
    "legacy_id": 15,
    "name": "岡むら屋 秋葉原店",
    "area_id": "akihabara",
    "genre": "丼もの",
    "time_category": ["昼", "夜"],
    "hours": "10:00〜22:30",
    "tags": ["サク飯", "ガッツリ", "一人OK"],
    "address": "東京都千代田区外神田3-14-3",
    "lat": 35.7020,
    "lng": 139.7707,
    "default_ai_summary": "じっくり煮込まれた大ぶりの角切り肉が乗った「肉めし」が特徴。提供が早く、ガッツリ肉をかき込みたい時に重宝する。"
  },
  {
    "id": "mcdonalds-bic-camera-akiba",
    "legacy_id": 16,
    "name": "マクドナルド ビックカメラAKIBA店",
    "area_id": "akihabara",
    "genre": "ハンバーガー",
    "time_category": ["朝", "昼", "夜"],
    "hours": "7:00〜23:00",
    "tags": ["サク飯", "一人OK", "朝飯OK", "深夜OK"],
    "address": "東京都千代田区外神田1-15-4",
    "lat": 35.6985,
    "lng": 139.7729,
    "default_ai_summary": "ビックカメラAKIBA 1F、中央通り沿いの定番。朝マックから深夜まで使えて、短時間休憩でも待ち時間ゼロでサクッと済ませられる。"
  },
  {
    "id": "burger-king-akihabara-showadori",
    "legacy_id": 17,
    "name": "バーガーキング 秋葉原昭和通り店",
    "area_id": "akihabara",
    "genre": "ハンバーガー",
    "time_category": ["昼", "夜"],
    "hours": "10:00〜23:00",
    "tags": ["ガッツリ", "一人OK", "深夜OK"],
    "address": "東京都千代田区神田佐久間町1-14-1",
    "lat": 35.6989,
    "lng": 139.7747,
    "default_ai_summary": "秋葉原駅東側・昭和通り沿いのバーガーキング。直火焼きワッパーで肉欲をガッツリ満たせる、勝った日の脂質チャージ枠。"
  },
  {
    "id": "carls-jr-akihabara",
    "legacy_id": 18,
    "name": "Carl's Jr. 秋葉原中央通りレストラン",
    "area_id": "akihabara",
    "genre": "ハンバーガー",
    "time_category": ["昼", "夜"],
    "hours": "11:00〜22:00",
    "tags": ["ガッツリ", "一人OK"],
    "address": "東京都千代田区外神田1-15-16",
    "lat": 35.6989,
    "lng": 139.7724,
    "default_ai_summary": "中央通り沿いのアメリカン分厚いパティ系バーガー。大勝ちした日にガッツリ食べたい気分を満たしてくれる贅沢飯ポジション。"
  },
  {
    "id": "yakiniku-like-akihabara-denkigai",
    "legacy_id": 19,
    "name": "焼肉ライク 秋葉原電気街店",
    "area_id": "akihabara",
    "genre": "焼肉",
    "time_category": ["昼", "夜"],
    "hours": "11:00〜23:30",
    "tags": ["サク飯", "ガッツリ", "一人OK", "深夜OK"],
    "address": "東京都千代田区外神田1-15-2",
    "lat": 35.6985,
    "lng": 139.7727,
    "default_ai_summary": "一人焼肉専門チェーン。タッチパネル注文で待ち時間が短く、勝負前後に一人でスタミナチャージしたい時に最適。"
  },
  {
    "id": "yakiniku-toraji-akihabara",
    "legacy_id": 20,
    "name": "焼肉トラジ 秋葉原店",
    "area_id": "akihabara",
    "genre": "焼肉",
    "time_category": ["昼", "夜"],
    "hours": "11:30〜15:00、17:00〜23:00",
    "tags": ["ガッツリ"],
    "address": "東京都千代田区外神田1-18-19",
    "lat": 35.6993,
    "lng": 139.7735,
    "default_ai_summary": "厚切り高級カルビが看板の人気焼肉店。大勝ちした日のご褒美ディナーや、複数人での祝勝会に向くハレの日枠。"
  },
  {
    "id": "hamazushi-akihabara-denkigai",
    "legacy_id": 21,
    "name": "はま寿司 秋葉原電気街口店",
    "area_id": "akihabara",
    "genre": "回転寿司",
    "time_category": ["昼", "夜"],
    "hours": "11:00〜23:00",
    "tags": ["サク飯", "一人OK"],
    "address": "東京都千代田区外神田1-13-3",
    "lat": 35.6988,
    "lng": 139.7722,
    "default_ai_summary": "コスパ抜群の大手回転寿司チェーン。タッチパネル注文で軍資金を温存しつつ、サクッと食事を済ませたい時に重宝する。"
  },
  {
    "id": "menya-kaijin-shinjuku",
    "legacy_id": 22,
    "name": "麺屋海神 新宿店",
    "area_id": "shinjuku",
    "genre": "ラーメン",
    "time_category": ["昼", "夜"],
    "hours": "11:00〜15:00、16:30〜23:30",
    "tags": ["サク飯", "一人OK"],
    "address": "東京都新宿区新宿3-35-7 さんらくビル2F",
    "lat": 35.6914,
    "lng": 139.7010,
    "default_ai_summary": "東南口徒歩30秒のあら炊き塩ラーメン百名店。あっさり系で休憩後の復帰もしやすい。"
  },
  {
    "id": "manrai-shinjuku",
    "legacy_id": 23,
    "name": "らぁめん 満来",
    "area_id": "shinjuku",
    "genre": "ラーメン",
    "time_category": ["昼", "夜"],
    "hours": "11:00〜23:00",
    "tags": ["ガッツリ", "一人OK", "深夜OK"],
    "address": "東京都新宿区西新宿1-4-10 満来ビル1・2F",
    "lat": 35.6896,
    "lng": 139.6975,
    "default_ai_summary": "西口の60年老舗。巨大チャーシューで勝ち飯・負け飯どちらにも使える定番の一杯。"
  },
  {
    "id": "monsnack-kinokuniya-shinjuku",
    "legacy_id": 24,
    "name": "モンスナック 新宿紀伊國屋ビル店",
    "area_id": "shinjuku",
    "genre": "カレー",
    "time_category": ["昼", "夜"],
    "hours": "11:00〜21:15",
    "tags": ["サク飯", "ガッツリ", "一人OK"],
    "address": "東京都新宿区新宿3-17-7 紀伊國屋ビルB1F",
    "lat": 35.6905,
    "lng": 139.7048,
    "default_ai_summary": "元祖サラサラカレーの老舗。カツカレー1,000円で手軽にガッツリ補給できる。"
  },
  {
    "id": "tonkatsu-niimura-shinjuku",
    "legacy_id": 25,
    "name": "とんかつ にいむら 本店",
    "area_id": "shinjuku",
    "genre": "とんかつ/カツ丼",
    "time_category": ["昼", "夜"],
    "hours": "10:30〜翌6:00",
    "tags": ["ガッツリ", "一人OK", "深夜OK"],
    "address": "東京都新宿区歌舞伎町1-23-10",
    "lat": 35.6941,
    "lng": 139.7018,
    "default_ai_summary": "歌舞伎町の老舗とんかつ。深夜まで営業しており、カツ丼・定食でしっかり休憩できる。"
  },
  {
    "id": "shinshu-soba-honten-shinjuku",
    "legacy_id": 26,
    "name": "信州そば本陣 ルミネエスト新宿店",
    "area_id": "shinjuku",
    "genre": "そば/うどん",
    "time_category": ["朝", "昼", "夜"],
    "hours": "10:00〜22:00",
    "tags": ["サク飯", "一人OK"],
    "address": "東京都新宿区新宿3-38-1 ルミネエスト新宿B1F",
    "lat": 35.6908,
    "lng": 139.7008,
    "default_ai_summary": "駅直結で食券から約10秒提供。最速クラスのサク飯候補。"
  },
  {
    "id": "kanoya-shinjuku-nishiguchi",
    "legacy_id": 27,
    "name": "かのや 新宿西口店",
    "area_id": "shinjuku",
    "genre": "そば/うどん",
    "time_category": ["朝", "昼", "夜"],
    "hours": "7:00〜23:00",
    "tags": ["サク飯", "一人OK", "朝飯OK", "深夜OK"],
    "address": "東京都新宿区西新宿1-16-11",
    "lat": 35.6894,
    "lng": 139.6988,
    "default_ai_summary": "早朝7時開店の立ち食いそば・うどん。長時間稼働の朝食・夜食に頼れる。"
  },
  {
    "id": "tatsuya-shinjuku",
    "legacy_id": 28,
    "name": "たつ屋 新宿店",
    "area_id": "shinjuku",
    "genre": "丼もの",
    "time_category": ["朝", "昼", "夜"],
    "hours": "10:00〜22:00",
    "tags": ["サク飯", "一人OK"],
    "address": "東京都新宿区新宿3-35-2",
    "lat": 35.6913,
    "lng": 139.7013,
    "default_ai_summary": "1969年創業の老舗丼屋。牛・親子・かつ丼がワンコイン前後で、昭和の雰囲気の中サクッと食べられる。"
  },
  {
    "id": "js-burgers-cafe-shinjuku",
    "legacy_id": 29,
    "name": "J.S. BURGERS CAFE 新宿店",
    "area_id": "shinjuku",
    "genre": "ハンバーガー",
    "time_category": ["昼", "夜"],
    "hours": "11:00〜23:00",
    "tags": ["ガッツリ", "一人OK"],
    "address": "東京都新宿区新宿4-1-7 ジャーナルスタンダード新宿店3F",
    "lat": 35.6888,
    "lng": 139.7022,
    "default_ai_summary": "ハンバーガー百名店。新南口徒歩2分、テイクアウト可でホール復帰もしやすい。"
  },
  {
    "id": "yakiniku-like-shinjuku-nishiguchi",
    "legacy_id": 30,
    "name": "焼肉ライク 新宿西口店",
    "area_id": "shinjuku",
    "genre": "焼肉",
    "time_category": ["昼", "夜"],
    "hours": "10:00〜23:00",
    "tags": ["サク飯", "ガッツリ", "一人OK"],
    "address": "東京都新宿区西新宿7-11-17 ブレステン西新宿1F",
    "lat": 35.6938,
    "lng": 139.6962,
    "default_ai_summary": "一人焼肉専門チェーン。3分提供・無煙ロースターで西口エリアのスタミナチャージに最適。"
  },
  {
    "id": "himawari-sushi-shinjuku",
    "legacy_id": 31,
    "name": "ひまわり寿司 新都心店",
    "area_id": "shinjuku",
    "genre": "回転寿司",
    "time_category": ["昼", "夜"],
    "hours": "11:00〜22:00",
    "tags": ["サク飯", "一人OK"],
    "address": "東京都新宿区西新宿1-15-3",
    "lat": 35.6890,
    "lng": 139.6982,
    "default_ai_summary": "西口の老舗回転寿司。ランチ丼600〜750円でコスパ良く、気軽にネタを楽しめる。"
  },
  {
    "id": "ichiran-ikebukuro-ekimae",
    "legacy_id": 32,
    "name": "一蘭 池袋駅前店",
    "area_id": "ikebukuro",
    "genre": "ラーメン",
    "time_category": ["昼", "夜"],
    "hours": "24時間営業",
    "tags": ["サク飯", "一人OK", "深夜OK"],
    "address": "東京都豊島区東池袋1-42-8",
    "lat": 35.7315,
    "lng": 139.7145,
    "default_ai_summary": "東口徒歩2分・24時間の個室風カウンター。いつでもサクッと入れる池袋の定番ラーメン。"
  },
  {
    "id": "mukan-ikebukuro",
    "legacy_id": 33,
    "name": "むかん 池袋",
    "area_id": "ikebukuro",
    "genre": "ラーメン",
    "time_category": ["昼", "夜"],
    "hours": "11:00〜22:00（L.O. 21:30）",
    "tags": ["サク飯", "一人OK"],
    "address": "東京都豊島区南池袋1-24-5",
    "lat": 35.7283,
    "lng": 139.7128,
    "default_ai_summary": "楽園池袋店ビル内の牡蠣塩ラーメン専門店。850円・提供2〜3分で東口大型店からの休憩飯に最適。"
  },
  {
    "id": "mutekiya-ikebukuro",
    "legacy_id": 34,
    "name": "麺創房 無敵家",
    "area_id": "ikebukuro",
    "genre": "ラーメン",
    "time_category": ["昼", "夜"],
    "hours": "10:30〜翌4:00",
    "tags": ["ガッツリ", "一人OK", "深夜OK"],
    "address": "東京都豊島区南池袋1-17-1",
    "lat": 35.7288,
    "lng": 139.7118,
    "default_ai_summary": "1994年創業の家系風とんこつ。深夜まで営業し、池袋の〆ラーメンとして定番。"
  },
  {
    "id": "gogocurry-ikebukuro-higashiguchi",
    "legacy_id": 35,
    "name": "ゴーゴーカレー 池袋東口スタジアム",
    "area_id": "ikebukuro",
    "genre": "カレー",
    "time_category": ["昼", "夜"],
    "hours": "10:55〜21:55",
    "tags": ["サク飯", "ガッツリ", "一人OK"],
    "address": "東京都豊島区南池袋1-23-2 ティワイズビルB1F",
    "lat": 35.7286,
    "lng": 139.7132,
    "default_ai_summary": "東口地下の金沢カレー。キャベツ食べ放題・回転速く、手頃にガッツリ補給できる。"
  },
  {
    "id": "sukiya-higashi-ikebukuro",
    "legacy_id": 36,
    "name": "すき家 東池袋店",
    "area_id": "ikebukuro",
    "genre": "丼もの",
    "time_category": ["朝", "昼", "夜"],
    "hours": "4:00〜翌3:00（AM3:00〜4:00休業）",
    "tags": ["サク飯", "一人OK", "朝飯OK", "深夜OK"],
    "address": "東京都豊島区東池袋1-31-1",
    "lat": 35.7308,
    "lng": 139.7138,
    "default_ai_summary": "東口徒歩3分の牛丼チェーン。早朝4時開店で長時間稼働、最速クラスの丼飯候補。"
  },
  {
    "id": "yoshinoya-ikebukuro-higashiguchi",
    "legacy_id": 37,
    "name": "吉野家 池袋東口店",
    "area_id": "ikebukuro",
    "genre": "丼もの",
    "time_category": ["朝", "昼", "夜"],
    "hours": "24時間営業",
    "tags": ["サク飯", "一人OK", "朝飯OK", "深夜OK"],
    "address": "東京都豊島区東池袋1-7-8",
    "lat": 35.7305,
    "lng": 139.7140,
    "default_ai_summary": "東口至近の牛丼。券売機で素早く注文でき、休憩の合間にサクッと飯を済ませられる。"
  },
  {
    "id": "yakiniku-like-ikebukuro-higashiguchi",
    "legacy_id": 38,
    "name": "焼肉ライク 池袋東口店",
    "area_id": "ikebukuro",
    "genre": "焼肉",
    "time_category": ["昼", "夜"],
    "hours": "11:00〜23:00",
    "tags": ["サク飯", "ガッツリ", "一人OK"],
    "address": "東京都豊島区東池袋1-40-3 池袋籏ビル1F",
    "lat": 35.7312,
    "lng": 139.7148,
    "default_ai_summary": "東口徒歩1分の一人焼肉専門。無煙ロースターで気軽にスタミナチャージできる。"
  },
  {
    "id": "kurasushi-ikebukuro-nishiguchi",
    "legacy_id": 39,
    "name": "くら寿司 池袋駅西口店",
    "area_id": "ikebukuro",
    "genre": "回転寿司",
    "time_category": ["昼", "夜"],
    "hours": "11:00〜24:00",
    "tags": ["サク飯", "一人OK", "深夜OK"],
    "address": "東京都豊島区西池袋1-10-10 東武アネックスビルB1F",
    "lat": 35.7298,
    "lng": 139.7095,
    "default_ai_summary": "西口徒歩1分の回転寿司チェーン。深夜まで営業し、西口ホール圏からの軽食に使いやすい。"
  },
  {
    "id": "oedo-soba-ikebukuro",
    "legacy_id": 40,
    "name": "大江戸そば 池袋店",
    "area_id": "ikebukuro",
    "genre": "そば/うどん",
    "time_category": ["朝", "昼", "夜"],
    "hours": "6:00〜23:00",
    "tags": ["サク飯", "一人OK", "朝飯OK"],
    "address": "東京都豊島区南池袋1丁目 JR池袋駅構内",
    "lat": 35.7295,
    "lng": 139.7105,
    "default_ai_summary": "駅構内の立ち食いそば。6時開店で提供が速く、乗換・休憩の最速飯候補。"
  },
  {
    "id": "yasaburo-ikebukuro",
    "legacy_id": 41,
    "name": "弥三郎",
    "area_id": "ikebukuro",
    "genre": "そば/うどん",
    "time_category": ["昼", "夜"],
    "hours": "11:00〜21:00",
    "tags": ["サク飯", "一人OK"],
    "address": "東京都豊島区西池袋1-13-7",
    "lat": 35.7282,
    "lng": 139.7088,
    "default_ai_summary": "西口徒歩2分の町うどん老舗。安く早く、西池袋ホールからの休憩飯に重宝する。"
  },
  {
    "id": "nadai-fujisoba-shibuya-meiji-dori",
    "legacy_id": 42,
    "name": "名代 富士そば 明治通り店",
    "area_id": "shibuya",
    "genre": "そば/うどん",
    "time_category": ["朝", "昼", "夜"],
    "hours": "24時間営業（3:00〜4:00休業）",
    "tags": ["サク飯", "一人OK", "深夜OK", "朝飯OK"],
    "address": "東京都渋谷区渋谷1-14-15 森ビル1F",
    "lat": 35.6602,
    "lng": 139.7025,
    "default_ai_summary": "東口宮益坂交差点・明治通沿い。24時間営業の立ち食いそばで、道玄坂ホール圏からの最速飯候補。"
  },
  {
    "id": "ichiran-shibuya",
    "legacy_id": 43,
    "name": "一蘭 渋谷店",
    "area_id": "shibuya",
    "genre": "ラーメン",
    "time_category": ["昼", "夜"],
    "hours": "24時間営業",
    "tags": ["サク飯", "一人OK", "深夜OK"],
    "address": "東京都渋谷区神南1-22-7 岩本ビルB1F",
    "lat": 35.6611,
    "lng": 139.7009,
    "default_ai_summary": "ハチ公口徒歩3分・24時間の個室風カウンター。いつでもサクッと入れる渋谷の定番ラーメン。"
  },
  {
    "id": "kindenmaru-shibuya-dogenzaka",
    "legacy_id": 44,
    "name": "渋谷らーめん金伝丸",
    "area_id": "shibuya",
    "genre": "ラーメン",
    "time_category": ["昼", "夜"],
    "hours": "11:00〜翌7:30",
    "tags": ["サク飯", "ガッツリ", "一人OK", "深夜OK"],
    "address": "東京都渋谷区道玄坂2-9-2 渋専連ビル1F",
    "lat": 35.6588,
    "lng": 139.6983,
    "default_ai_summary": "西口徒歩1分の豚骨醤油ラーメン。深夜〜早朝まで営業し、道玄坂の〆麺として重宝する。"
  },
  {
    "id": "yoshinoya-shibuya-dogenzaka-dori",
    "legacy_id": 45,
    "name": "吉野家 渋谷道玄坂通店",
    "area_id": "shibuya",
    "genre": "丼もの",
    "time_category": ["朝", "昼", "夜"],
    "hours": "24時間営業",
    "tags": ["サク飯", "一人OK", "朝飯OK", "深夜OK"],
    "address": "東京都渋谷区道玄坂2-25-12",
    "lat": 35.6602,
    "lng": 139.6975,
    "default_ai_summary": "道玄坂通りの24時間牛丼。券売機で素早く注文でき、大型ホールからの休憩飯に最適。"
  },
  {
    "id": "sukiya-shibuya-sakuragaoka",
    "legacy_id": 46,
    "name": "すき家 渋谷桜丘店",
    "area_id": "shibuya",
    "genre": "丼もの",
    "time_category": ["朝", "昼", "夜"],
    "hours": "4:00〜翌3:00（AM3:00〜4:00休業）",
    "tags": ["サク飯", "一人OK", "朝飯OK", "深夜OK"],
    "address": "東京都渋谷区桜丘町15-19",
    "lat": 35.6565,
    "lng": 139.7016,
    "default_ai_summary": "新南口・桜丘側の牛丼チェーン。早朝4時開店で長時間稼働、サクラステージ動線の最速丼候補。"
  },
  {
    "id": "sutadonya-shibuya",
    "legacy_id": 47,
    "name": "伝説のすた丼屋 渋谷店",
    "area_id": "shibuya",
    "genre": "丼もの",
    "time_category": ["昼", "夜"],
    "hours": "11:00〜翌3:00",
    "tags": ["サク飯", "ガッツリ", "一人OK", "深夜OK"],
    "address": "東京都渋谷区道玄坂2-6-7 道玄坂Tビル1F",
    "lat": 35.6587,
    "lng": 139.6990,
    "default_ai_summary": "道玄坂徒歩2分の名物すた丼。ニンニク効いたガッツリ丼で、大型店からの腹ごしらえに最適。"
  },
  {
    "id": "katsuya-shibuya-dogenzaka",
    "legacy_id": 48,
    "name": "かつや 渋谷道玄坂店",
    "area_id": "shibuya",
    "genre": "とんかつ/カツ丼",
    "time_category": ["昼", "夜"],
    "hours": "10:00〜23:00",
    "tags": ["サク飯", "一人OK"],
    "address": "東京都渋谷区道玄坂2-9-2 正実ビル1F",
    "lat": 35.6588,
    "lng": 139.6983,
    "default_ai_summary": "西口徒歩1分のかつ丼・とんかつチェーン。提供が速く、道玄坂ホール圏の手軽な定番飯。"
  },
  {
    "id": "yakiniku-like-shibuya-dogenzaka",
    "legacy_id": 49,
    "name": "焼肉ライク 渋谷道玄坂店",
    "area_id": "shibuya",
    "genre": "焼肉",
    "time_category": ["昼", "夜"],
    "hours": "11:00〜23:00（L.O. 22:30）",
    "tags": ["サク飯", "ガッツリ", "一人OK"],
    "address": "東京都渋谷区道玄坂2-16-3 高葉屋ビル1F",
    "lat": 35.6588,
    "lng": 139.6971,
    "default_ai_summary": "道玄坂徒歩6分の一人焼肉専門。無煙ロースターで気軽にスタミナチャージできる。"
  },
  {
    "id": "kurasushi-shibuya-ekimae",
    "legacy_id": 50,
    "name": "くら寿司 渋谷駅前店",
    "area_id": "shibuya",
    "genre": "回転寿司",
    "time_category": ["昼", "夜"],
    "hours": "平日11:00〜23:00、土日祝10:20〜23:00",
    "tags": ["サク飯", "一人OK"],
    "address": "東京都渋谷区宇田川町23-3 渋谷第一勧銀共同ビル7F",
    "lat": 35.6597,
    "lng": 139.6996,
    "default_ai_summary": "ハチ公口徒歩1分の回転寿司チェーン。コスパ良好で、道玄坂ホール圏からの軽食に使いやすい。"
  },
  {
    "id": "matsuya-mycurry-shibuya-sakuragaoka",
    "legacy_id": 51,
    "name": "松屋・マイカリー食堂 渋谷桜丘店",
    "area_id": "shibuya",
    "genre": "カレー",
    "time_category": ["朝", "昼", "夜"],
    "hours": "24時間営業",
    "tags": ["サク飯", "一人OK", "朝飯OK", "深夜OK"],
    "address": "東京都渋谷区桜丘町1-4 渋谷サクラステージ SHIBUYAサイド 1F",
    "lat": 35.6570,
    "lng": 139.7020,
    "default_ai_summary": "サクラステージ1Fの24時間複合店。朝カレー530円台から牛丼まで、新南口動線の万能補給拠点。"
  },
  {
    "id": "nadai-fujisoba-ueno-ekimae",
    "legacy_id": 52,
    "name": "名代 富士そば 上野店",
    "area_id": "ueno",
    "genre": "そば/うどん",
    "time_category": ["朝", "昼", "夜"],
    "hours": "24時間営業",
    "tags": ["サク飯", "一人OK", "深夜OK", "朝飯OK"],
    "address": "東京都台東区上野7-2-1 上野駅前昭栄ビル",
    "lat": 35.7124,
    "lng": 139.7774,
    "default_ai_summary": "上野駅正面・24時間の立ち食いそば。券売機で最速提供、大型ホール圏の定番サク飯。"
  },
  {
    "id": "ichiran-ueno-atore",
    "legacy_id": 53,
    "name": "一蘭 アトレ上野山下口店",
    "area_id": "ueno",
    "genre": "ラーメン",
    "time_category": ["昼", "夜"],
    "hours": "24時間営業",
    "tags": ["サク飯", "一人OK", "深夜OK"],
    "address": "東京都台東区上野7-1-1 アトレ上野",
    "lat": 35.7137,
    "lng": 139.7769,
    "default_ai_summary": "アトレ上野内・24時間の個室風カウンター。山下口動線からサクッと入れる定番ラーメン。"
  },
  {
    "id": "matsuya-ueno",
    "legacy_id": 54,
    "name": "松屋 上野店",
    "area_id": "ueno",
    "genre": "カレー",
    "time_category": ["朝", "昼", "夜"],
    "hours": "24時間営業",
    "tags": ["サク飯", "一人OK", "朝飯OK", "深夜OK"],
    "address": "東京都台東区上野4-9-5 石井ビル1・2F",
    "lat": 35.7100,
    "lng": 139.7738,
    "default_ai_summary": "不忍口徒歩5分の24時間牛丼・カレー。エスパス本館・新館からの手軽な補給拠点。"
  },
  {
    "id": "gogocurry-ueno-okachimachi",
    "legacy_id": 55,
    "name": "ゴーゴーカレー 上野御徒町店",
    "area_id": "ueno",
    "genre": "カレー",
    "time_category": ["昼", "夜"],
    "hours": "10:55〜21:55（日祝20:55）",
    "tags": ["サク飯", "ガッツリ", "一人OK"],
    "address": "東京都台東区上野6-2-7 宮入ビル1F",
    "lat": 35.7085,
    "lng": 139.7754,
    "default_ai_summary": "御徒町北口徒歩2分の金沢カレー。キャベツ食放題・回転速く、アメ横ホール圏の定番。"
  },
  {
    "id": "yoshinoya-ueno-ekimae",
    "legacy_id": 56,
    "name": "吉野家 上野駅前店",
    "area_id": "ueno",
    "genre": "丼もの",
    "time_category": ["朝", "昼", "夜"],
    "hours": "4:00〜翌3:00",
    "tags": ["サク飯", "一人OK", "朝飯OK", "深夜OK"],
    "address": "東京都台東区上野7-3-2 ピナクルプロパティーズ上野駅前ビル1F",
    "lat": 35.7124,
    "lng": 139.7777,
    "default_ai_summary": "上野駅正面の牛丼。早朝4時開店で長時間稼働、駅前ホールからの最速丼候補。"
  },
  {
    "id": "mcdonalds-ueno-okachimachi",
    "legacy_id": 57,
    "name": "マクドナルド 上野御徒町店",
    "area_id": "ueno",
    "genre": "ハンバーガー",
    "time_category": ["朝", "昼", "夜"],
    "hours": "24時間営業",
    "tags": ["サク飯", "一人OK", "朝飯OK", "深夜OK"],
    "address": "東京都台東区上野4-4 B&Vビル2F・3F",
    "lat": 35.7084,
    "lng": 139.7734,
    "default_ai_summary": "上野御徒町駅至近の24時間ファストフード。アメ横・御徒町動線の最速軽食。"
  },
  {
    "id": "sutadonya-okachimachi",
    "legacy_id": 58,
    "name": "伝説のすた丼屋 御徒町店",
    "area_id": "ueno",
    "genre": "丼もの",
    "time_category": ["昼", "夜"],
    "hours": "11:00〜22:30（L.O. 22:00）",
    "tags": ["サク飯", "ガッツリ", "一人OK"],
    "address": "東京都台東区上野3-20-7 GYOTOC ONEビル1F",
    "lat": 35.7059,
    "lng": 139.7741,
    "default_ai_summary": "御徒町徒歩2分の名物すた丼。ニンニク効いたガッツリ丼で腹ごしらえに最適。"
  },
  {
    "id": "katsuya-okachimachi-minamiguchi",
    "legacy_id": 59,
    "name": "かつや 御徒町南口店",
    "area_id": "ueno",
    "genre": "とんかつ/カツ丼",
    "time_category": ["昼", "夜"],
    "hours": "10:00〜23:00",
    "tags": ["サク飯", "一人OK"],
    "address": "東京都台東区上野5-20-3",
    "lat": 35.7061,
    "lng": 139.7744,
    "default_ai_summary": "御徒町南口徒歩1分のかつ丼チェーン。提供が速く、楽園アメ横店からの手軽な定番飯。"
  },
  {
    "id": "yakiniku-like-ueno",
    "legacy_id": 60,
    "name": "焼肉ライク 上野店",
    "area_id": "ueno",
    "genre": "焼肉",
    "time_category": ["昼", "夜"],
    "hours": "10:00〜23:00（L.O. 22:30）",
    "tags": ["サク飯", "ガッツリ", "一人OK"],
    "address": "東京都台東区上野4-8-3 MD上野ビル1F・2F",
    "lat": 35.7093,
    "lng": 139.7737,
    "default_ai_summary": "上野広小路駅徒歩1分の一人焼肉専門。無煙ロースターで気軽にスタミナチャージできる。"
  },
  {
    "id": "kurasushi-okachimachi",
    "legacy_id": 61,
    "name": "くら寿司 御徒町店",
    "area_id": "ueno",
    "genre": "回転寿司",
    "time_category": ["昼", "夜"],
    "hours": "11:00〜23:00",
    "tags": ["サク飯", "一人OK"],
    "address": "東京都台東区台東4-33-1 クロスポイント御徒町2F",
    "lat": 35.7072,
    "lng": 139.7766,
    "default_ai_summary": "仲御徒町駅徒歩1分の回転寿司チェーン。コスパ良好でアメ横ホール圏からの軽食に使いやすい。"
  }
]
