[
  {
    "id": "honda-akihabara",
    "legacy_id": 1,
    "name": "麺処 ほん田 秋葉原本店",
    "area_id": "akihabara",
    "genre": "ラーメン",
    "time_category": [
      "昼",
      "夜"
    ],
    "hours": "11:30〜15:00、18:00〜21:00",
    "tags": [
      "ガッツリ",
      "一人OK"
    ],
    "address": "東京都千代田区神田花岡町1-19",
    "lat": 35.698639,
    "lng": 139.774612,
    "default_ai_summary": "都内屈指の有名店。並びは激しいが、大勝ちした日の最高のご褒美麺として完璧なクオリティ。",
    "is_kitaichimeshi": true,
    "selection_tags": [
      "notable_restaurant",
      "local_famous"
    ],
    "selection_note": "地域で知名度の高い人気店として選定"
  },
  {
    "id": "aoshima-shokudo-akihabara",
    "legacy_id": 2,
    "name": "青島食堂 秋葉原店",
    "area_id": "akihabara",
    "genre": "ラーメン",
    "time_category": [
      "昼",
      "夜"
    ],
    "hours": "11:00〜21:00",
    "tags": [
      "ガッツリ",
      "一人OK"
    ],
    "address": "東京都千代田区神田須田町2-12-5",
    "lat": 35.6948,
    "lng": 139.772,
    "default_ai_summary": "新潟・長岡発祥の生姜醤油ラーメンの名店。あっさり系ながら旨味が濃く、軍資金を使い切った後のリセット飯としても重宝する。"
  },
  {
    "id": "ramen-waizu-akihabara",
    "legacy_id": 3,
    "name": "秋葉原 ラーメン わいず",
    "area_id": "akihabara",
    "genre": "ラーメン",
    "time_category": [
      "昼",
      "夜"
    ],
    "hours": "10:30〜22:00",
    "tags": [
      "サク飯",
      "ガッツリ",
      "一人OK"
    ],
    "address": "東京都千代田区外神田3-7-8",
    "lat": 35.702843,
    "lng": 139.770447,
    "default_ai_summary": "濃厚でガツンとくる家系ラーメン。終日営業しているため、どの時間帯の休憩でも立ち寄りやすい。"
  },
  {
    "id": "hakata-furyu-akihabara",
    "legacy_id": 4,
    "name": "博多風龍 秋葉原総本店",
    "area_id": "akihabara",
    "genre": "ラーメン",
    "time_category": [
      "昼",
      "夜"
    ],
    "hours": "11:00〜翌2:00",
    "tags": [
      "サク飯",
      "ガッツリ",
      "一人OK",
      "深夜OK"
    ],
    "address": "東京都千代田区外神田3-15-6",
    "lat": 35.701824,
    "lng": 139.771408,
    "default_ai_summary": "電気街口側にある、爆速提供＋替玉2玉無料の定番ラーメン店。一人サク飯にも勝った日のご褒美にも使いやすい。"
  },
  {
    "id": "curry-wa-nomimono-akihabara",
    "legacy_id": 5,
    "name": "カレーは飲み物。秋葉原店",
    "area_id": "akihabara",
    "genre": "カレー",
    "time_category": [
      "昼",
      "夜"
    ],
    "hours": "11:00〜16:00、17:30〜21:30",
    "tags": [
      "サク飯",
      "ガッツリ",
      "一人OK"
    ],
    "address": "東京都台東区台東1-9-4 片岡ビル1F",
    "lat": 35.700874,
    "lng": 139.775833,
    "default_ai_summary": "トッピングが3つ選べる濃厚カレー。提供スピードが早く、ガッツリ食べてすぐホールに戻りたい時に最適。",
    "is_kitaichimeshi": true,
    "selection_tags": [
      "notable_restaurant"
    ],
    "selection_note": "秋葉原エリアで定番の人気店として選定"
  },
  {
    "id": "curry-no-shimin-alba-akihabara",
    "legacy_id": 6,
    "name": "カレーの市民 アルバ 秋葉原本店",
    "area_id": "akihabara",
    "genre": "カレー",
    "time_category": [
      "昼",
      "夜"
    ],
    "hours": "11:00〜21:30",
    "tags": [
      "サク飯",
      "ガッツリ",
      "一人OK"
    ],
    "address": "東京都千代田区外神田3-2-9",
    "lat": 35.700512,
    "lng": 139.770386,
    "default_ai_summary": "外神田3丁目の金沢発カレー専門店。濃厚なルーで、サクッとエネルギー補給をするのに便利。"
  },
  {
    "id": "karigari-akihabara",
    "legacy_id": 7,
    "name": "秋葉原カリガリ",
    "area_id": "akihabara",
    "genre": "カレー",
    "time_category": [
      "昼",
      "夜"
    ],
    "hours": "11:30〜23:00",
    "tags": [
      "一人OK",
      "深夜OK"
    ],
    "address": "東京都千代田区外神田3-6-9 沖村ビル1F",
    "lat": 35.70285,
    "lng": 139.77005,
    "default_ai_summary": "神田カレーグランプリ優勝店。お洒落な空間ながら、スパイスの効いたカレーで脳をリフレッシュできる。"
  },
  {
    "id": "marugo",
    "legacy_id": 8,
    "name": "丸五",
    "area_id": "akihabara",
    "genre": "とんかつ/カツ丼",
    "time_category": [
      "昼",
      "夜"
    ],
    "hours": "11:30〜14:00、17:00〜20:00",
    "tags": [
      "ガッツリ",
      "一人OK"
    ],
    "address": "東京都千代田区外神田1-8-14",
    "lat": 35.699123,
    "lng": 139.769791,
    "default_ai_summary": "行列できる人気のとんかつ店。「勝負に勝つ」ゲン担ぎや、大勝利した日の贅沢ディナーにふさわしい名店。",
    "is_kitaichimeshi": true,
    "selection_tags": [
      "local_famous",
      "notable_restaurant",
      "queue_popular",
      "hearty_meal"
    ],
    "selection_note": "地域で知名度の高い人気店として選定"
  },
  {
    "id": "nadai-fujisoba-akihabara-denkigai",
    "legacy_id": 10,
    "name": "名代 富士そば 秋葉原電気街店",
    "area_id": "akihabara",
    "genre": "そば/うどん",
    "time_category": [
      "朝",
      "昼",
      "夜"
    ],
    "hours": "24時間営業",
    "tags": [
      "サク飯",
      "一人OK",
      "深夜OK",
      "朝飯OK"
    ],
    "address": "東京都千代田区外神田1-15-18",
    "lat": 35.6986,
    "lng": 139.7727,
    "default_ai_summary": "秋葉原駅電気街口の目の前。24時間営業のため、抽選前の朝食から閉店後の夜食までいつでも使える絶対的安心感。"
  },
  {
    "id": "komoro-soba-akihabara",
    "legacy_id": 11,
    "name": "小諸そば 秋葉原店",
    "area_id": "akihabara",
    "genre": "そば/うどん",
    "time_category": [
      "朝",
      "昼",
      "夜"
    ],
    "hours": "6:30〜22:00",
    "tags": [
      "サク飯",
      "一人OK",
      "朝飯OK"
    ],
    "address": "東京都千代田区外神田1-8-13",
    "lat": 35.6993,
    "lng": 139.7714,
    "default_ai_summary": "安くて早くて旨い立ち食いそば。並びから実食まで10分以内で完結するため、短時間の昼休憩に重宝する。"
  },
  {
    "id": "sutadonya-akihabara",
    "legacy_id": 12,
    "name": "すた丼屋 秋葉原店",
    "area_id": "akihabara",
    "genre": "丼もの",
    "time_category": [
      "昼",
      "夜"
    ],
    "hours": "11:00〜23:00",
    "tags": [
      "サク飯",
      "ガッツリ",
      "一人OK",
      "深夜OK"
    ],
    "address": "東京都千代田区外神田4-4-3",
    "lat": 35.7026,
    "lng": 139.772,
    "default_ai_summary": "ジャンクでニンニクの効いた伝説のすた丼。圧倒的スピード提供と強烈な塩分・総カロリーで、疲れた脳に活力を注入できる。"
  },
  {
    "id": "roast-beef-ohno-akihabara",
    "legacy_id": 13,
    "name": "ローストビーフ大野 秋葉原店",
    "area_id": "akihabara",
    "genre": "丼もの",
    "time_category": [
      "昼",
      "夜"
    ],
    "hours": "11:00〜22:00",
    "tags": [
      "ガッツリ",
      "一人OK"
    ],
    "address": "東京都千代田区外神田1-10-5",
    "lat": 35.6991,
    "lng": 139.772,
    "default_ai_summary": "秋葉原駅近くの山盛りローストビーフ丼店。終日並びが激しいため、時間に余裕がある時の贅沢向け。"
  },
  {
    "id": "niku-no-mansei-akihabara",
    "legacy_id": 14,
    "name": "肉の万世 秋葉原本店",
    "area_id": "akihabara",
    "genre": "丼もの",
    "time_category": [
      "昼",
      "夜"
    ],
    "hours": "11:00〜22:00",
    "tags": [
      "ガッツリ"
    ],
    "address": "東京都千代田区神田須田町2-21",
    "lat": 35.6961,
    "lng": 139.7715,
    "default_ai_summary": "秋葉原の肉の聖地。ボリューム満点の万かつサンドのテイクアウトや、パチスロ大勝ち時の「万枚祝い」のディナーに最適。"
  },
  {
    "id": "okamuraya-akihabara",
    "legacy_id": 15,
    "name": "岡むら屋 秋葉原店",
    "area_id": "akihabara",
    "genre": "丼もの",
    "time_category": [
      "昼",
      "夜"
    ],
    "hours": "10:00〜22:30",
    "tags": [
      "サク飯",
      "ガッツリ",
      "一人OK"
    ],
    "address": "東京都千代田区外神田3-14-3",
    "lat": 35.702,
    "lng": 139.7707,
    "default_ai_summary": "じっくり煮込まれた大ぶりの角切り肉が乗った「肉めし」が特徴。提供が早く、ガッツリ肉をかき込みたい時に重宝する。"
  },
  {
    "id": "mcdonalds-bic-camera-akiba",
    "legacy_id": 16,
    "name": "マクドナルド ビックカメラAKIBA店",
    "area_id": "akihabara",
    "genre": "ハンバーガー",
    "time_category": [
      "朝",
      "昼",
      "夜"
    ],
    "hours": "7:00〜23:00",
    "tags": [
      "サク飯",
      "一人OK",
      "朝飯OK",
      "深夜OK"
    ],
    "address": "東京都千代田区外神田1-15-4",
    "lat": 35.6985,
    "lng": 139.7729,
    "default_ai_summary": "ビックカメラAKIBA 1F、中央通り沿いの定番。朝マックから深夜まで使えて、短時間休憩でも待ち時間ゼロでサクッと済ませられる。"
  },
  {
    "id": "burger-king-akihabara-showadori",
    "legacy_id": 17,
    "name": "バーガーキング 秋葉原昭和通り店",
    "area_id": "akihabara",
    "genre": "ハンバーガー",
    "time_category": [
      "昼",
      "夜"
    ],
    "hours": "10:00〜23:00",
    "tags": [
      "ガッツリ",
      "一人OK",
      "深夜OK"
    ],
    "address": "東京都千代田区神田佐久間町1-14-1",
    "lat": 35.6989,
    "lng": 139.7747,
    "default_ai_summary": "秋葉原駅東側・昭和通り沿いのバーガーキング。直火焼きワッパーで肉欲をガッツリ満たせる、勝った日の脂質チャージ枠。"
  },
  {
    "id": "carls-jr-akihabara",
    "legacy_id": 18,
    "name": "Carl's Jr. 秋葉原中央通りレストラン",
    "area_id": "akihabara",
    "genre": "ハンバーガー",
    "time_category": [
      "昼",
      "夜"
    ],
    "hours": "11:00〜22:00",
    "tags": [
      "ガッツリ",
      "一人OK"
    ],
    "address": "東京都千代田区外神田1-15-16",
    "lat": 35.6989,
    "lng": 139.7724,
    "default_ai_summary": "中央通り沿いのアメリカン分厚いパティ系バーガー。大勝ちした日にガッツリ食べたい気分を満たしてくれる贅沢飯ポジション。"
  },
  {
    "id": "yakiniku-like-akihabara-denkigai",
    "legacy_id": 19,
    "name": "焼肉ライク 秋葉原電気街店",
    "area_id": "akihabara",
    "genre": "焼肉",
    "time_category": [
      "昼",
      "夜"
    ],
    "hours": "11:00〜23:30",
    "tags": [
      "サク飯",
      "ガッツリ",
      "一人OK",
      "深夜OK"
    ],
    "address": "東京都千代田区外神田1-4-11 高架下2F",
    "lat": 35.698589,
    "lng": 139.770828,
    "default_ai_summary": "一人焼肉専門チェーン。タッチパネル注文で待ち時間が短く、勝負前後に一人でスタミナチャージしたい時に最適。"
  },
  {
    "id": "yakiniku-toraji-akihabara",
    "legacy_id": 20,
    "name": "焼肉トラジ 秋葉原店",
    "area_id": "akihabara",
    "genre": "焼肉",
    "time_category": [
      "昼",
      "夜"
    ],
    "hours": "11:30〜15:00、17:00〜23:00",
    "tags": [
      "ガッツリ"
    ],
    "address": "東京都千代田区神田佐久間町1-6-5 アキバ・トリム5F",
    "lat": 35.697826,
    "lng": 139.773346,
    "default_ai_summary": "厚切り高級カルビが看板の人気焼肉店。大勝ちした日のご褒美ディナーや、複数人での祝勝会に向くハレの日枠。"
  },
  {
    "id": "hamazushi-akihabara-denkigai",
    "legacy_id": 21,
    "name": "はま寿司 秋葉原電気街口店",
    "area_id": "akihabara",
    "genre": "回転寿司",
    "time_category": [
      "昼",
      "夜"
    ],
    "hours": "11:00〜23:00",
    "tags": [
      "サク飯",
      "一人OK"
    ],
    "address": "東京都千代田区外神田1-18-18 BiTO AKIBA PLAZA 3F",
    "lat": 35.698704,
    "lng": 139.772141,
    "default_ai_summary": "コスパ抜群の大手回転寿司チェーン。タッチパネル注文で軍資金を温存しつつ、サクッと食事を済ませたい時に重宝する。"
  },
  {
    "id": "menya-kaijin-shinjuku",
    "legacy_id": 22,
    "name": "麺屋海神 新宿店",
    "area_id": "shinjuku",
    "genre": "ラーメン",
    "time_category": [
      "昼",
      "夜"
    ],
    "hours": "11:00〜15:00、16:30〜23:30",
    "tags": [
      "サク飯",
      "一人OK"
    ],
    "address": "東京都新宿区新宿3-35-7 さんらくビル2F",
    "lat": 35.689754,
    "lng": 139.702179,
    "default_ai_summary": "東南口徒歩30秒のあら炊き塩ラーメン専門店。ラーメン好きに人気で、あっさり系なので休憩後の復帰もしやすい。",
    "is_kitaichimeshi": true,
    "selection_tags": [
      "notable_restaurant",
      "ramen_popular",
      "station_near"
    ],
    "selection_note": "ラーメン好きに人気の店舗として選定"
  },
  {
    "id": "manrai-shinjuku",
    "legacy_id": 23,
    "name": "らぁめん 満来",
    "area_id": "shinjuku",
    "genre": "ラーメン",
    "time_category": [
      "昼",
      "夜"
    ],
    "hours": "11:00〜23:00",
    "tags": [
      "ガッツリ",
      "一人OK",
      "深夜OK"
    ],
    "address": "東京都新宿区西新宿1-4-10 満来ビル1・2F",
    "lat": 35.692963,
    "lng": 139.697845,
    "default_ai_summary": "西口の60年老舗。巨大チャーシューで勝ち飯・負け飯どちらにも使える定番の一杯。",
    "is_kitaichimeshi": true,
    "selection_tags": [
      "local_famous",
      "notable_restaurant",
      "hearty_meal"
    ],
    "selection_note": "地域で知名度の高い人気店として選定"
  },
  {
    "id": "monsnack-kinokuniya-shinjuku",
    "legacy_id": 24,
    "name": "モンスナック 新宿紀伊國屋ビル店",
    "area_id": "shinjuku",
    "genre": "カレー",
    "time_category": [
      "昼",
      "夜"
    ],
    "hours": "11:00〜21:15",
    "tags": [
      "サク飯",
      "ガッツリ",
      "一人OK"
    ],
    "address": "東京都新宿区新宿3-17-7 紀伊國屋ビルB1F",
    "lat": 35.691921,
    "lng": 139.702774,
    "default_ai_summary": "元祖サラサラカレーの老舗。カツカレー1,000円で手軽にガッツリ補給できる。",
    "is_kitaichimeshi": true,
    "selection_tags": [
      "local_famous",
      "notable_restaurant",
      "curry_popular"
    ],
    "selection_note": "地域で知名度の高い人気店として選定"
  },
  {
    "id": "tonkatsu-niimura-shinjuku",
    "legacy_id": 25,
    "name": "とんかつ にいむら 本店",
    "area_id": "shinjuku",
    "genre": "とんかつ/カツ丼",
    "time_category": [
      "昼",
      "夜"
    ],
    "hours": "10:30〜翌6:00",
    "tags": [
      "ガッツリ",
      "一人OK",
      "深夜OK"
    ],
    "address": "東京都新宿区歌舞伎町1-23-10",
    "lat": 35.694633,
    "lng": 139.701141,
    "default_ai_summary": "歌舞伎町の老舗とんかつ。深夜まで営業しており、カツ丼・定食でしっかり休憩できる。",
    "is_kitaichimeshi": true,
    "selection_tags": [
      "local_famous",
      "notable_restaurant",
      "hearty_meal"
    ],
    "selection_note": "地元利用者の多い店舗として選定"
  },
  {
    "id": "shinshu-soba-honten-shinjuku",
    "legacy_id": 26,
    "name": "信州そば本陣 ルミネエスト新宿店",
    "area_id": "shinjuku",
    "genre": "そば/うどん",
    "time_category": [
      "朝",
      "昼",
      "夜"
    ],
    "hours": "10:00〜22:00",
    "tags": [
      "サク飯",
      "一人OK"
    ],
    "address": "東京都新宿区新宿3-38-1 ルミネエスト新宿B1F",
    "lat": 35.6908,
    "lng": 139.7008,
    "default_ai_summary": "駅直結で食券から約10秒提供。最速クラスのサク飯候補。"
  },
  {
    "id": "kanoya-shinjuku-nishiguchi",
    "legacy_id": 27,
    "name": "かのや 新宿西口店",
    "area_id": "shinjuku",
    "genre": "そば/うどん",
    "time_category": [
      "朝",
      "昼",
      "夜"
    ],
    "hours": "7:00〜23:00",
    "tags": [
      "サク飯",
      "一人OK",
      "朝飯OK",
      "深夜OK"
    ],
    "address": "東京都新宿区西新宿1-16-11",
    "lat": 35.6894,
    "lng": 139.6988,
    "default_ai_summary": "早朝7時開店の立ち食いそば・うどん。長時間稼働の朝食・夜食に頼れる。"
  },
  {
    "id": "tatsuya-shinjuku",
    "legacy_id": 28,
    "name": "たつ屋 新宿店",
    "area_id": "shinjuku",
    "genre": "丼もの",
    "time_category": [
      "朝",
      "昼",
      "夜"
    ],
    "hours": "10:00〜22:00",
    "tags": [
      "サク飯",
      "一人OK"
    ],
    "address": "東京都新宿区新宿3-35-2",
    "lat": 35.6913,
    "lng": 139.7013,
    "default_ai_summary": "1969年創業の老舗丼屋。牛・親子・かつ丼がワンコイン前後で、昭和の雰囲気の中サクッと食べられる。"
  },
  {
    "id": "js-burgers-cafe-shinjuku",
    "legacy_id": 29,
    "name": "J.S. BURGERS CAFE 新宿店",
    "area_id": "shinjuku",
    "genre": "ハンバーガー",
    "time_category": [
      "昼",
      "夜"
    ],
    "hours": "11:00〜23:00",
    "tags": [
      "ガッツリ",
      "一人OK"
    ],
    "address": "東京都新宿区新宿4-1-7 ジャーナルスタンダード新宿店3F",
    "lat": 35.6888,
    "lng": 139.7022,
    "default_ai_summary": "話題のハンバーガー店。新南口徒歩2分、テイクアウト可でホール復帰もしやすい。"
  },
  {
    "id": "yakiniku-like-shinjuku-nishiguchi",
    "legacy_id": 30,
    "name": "焼肉ライク 新宿西口店",
    "area_id": "shinjuku",
    "genre": "焼肉",
    "time_category": [
      "昼",
      "夜"
    ],
    "hours": "10:00〜23:00",
    "tags": [
      "サク飯",
      "ガッツリ",
      "一人OK"
    ],
    "address": "東京都新宿区西新宿7-11-17 ブレステン西新宿1F",
    "lat": 35.693985,
    "lng": 139.697784,
    "default_ai_summary": "一人焼肉専門チェーン。3分提供・無煙ロースターで西口エリアのスタミナチャージに最適。"
  },
  {
    "id": "himawari-sushi-shinjuku",
    "legacy_id": 31,
    "name": "ひまわり寿司 新都心店",
    "area_id": "shinjuku",
    "genre": "回転寿司",
    "time_category": [
      "昼",
      "夜"
    ],
    "hours": "11:00〜22:00",
    "tags": [
      "サク飯",
      "一人OK"
    ],
    "address": "東京都新宿区西新宿1-15-3",
    "lat": 35.688992,
    "lng": 139.697525,
    "default_ai_summary": "西口の老舗回転寿司。ランチ丼600〜750円でコスパ良く、気軽にネタを楽しめる。"
  },
  {
    "id": "ichiran-ikebukuro-ekimae",
    "legacy_id": 32,
    "name": "一蘭 池袋駅前店",
    "area_id": "ikebukuro",
    "genre": "ラーメン",
    "time_category": [
      "昼",
      "夜"
    ],
    "hours": "24時間営業",
    "tags": [
      "サク飯",
      "一人OK",
      "深夜OK"
    ],
    "address": "東京都豊島区東池袋1-42-8",
    "lat": 35.731949,
    "lng": 139.712708,
    "default_ai_summary": "東口徒歩2分・24時間の個室風カウンター。いつでもサクッと入れる池袋の定番ラーメン。"
  },
  {
    "id": "mukan-ikebukuro",
    "legacy_id": 33,
    "name": "むかん 池袋",
    "area_id": "ikebukuro",
    "genre": "ラーメン",
    "time_category": [
      "昼",
      "夜"
    ],
    "hours": "11:00〜22:00（L.O. 21:30）",
    "tags": [
      "サク飯",
      "一人OK"
    ],
    "address": "東京都豊島区南池袋1-24-5 楽園タウン池袋1F",
    "lat": 35.728897,
    "lng": 139.712921,
    "default_ai_summary": "楽園池袋店ビル内の牡蠣塩ラーメン専門店。850円・提供2〜3分で東口大型店からの休憩飯に最適。",
    "is_kitaichimeshi": true,
    "selection_tags": [
      "notable_restaurant",
      "ramen_popular",
      "quick_return"
    ],
    "selection_note": "駅近で食事満足度が高い店舗として選定"
  },
  {
    "id": "mutekiya-ikebukuro",
    "legacy_id": 34,
    "name": "麺創房 無敵家",
    "area_id": "ikebukuro",
    "genre": "ラーメン",
    "time_category": [
      "昼",
      "夜"
    ],
    "hours": "10:30〜翌4:00",
    "tags": [
      "ガッツリ",
      "一人OK",
      "深夜OK"
    ],
    "address": "東京都豊島区南池袋1-17-1 崎本ビル1F",
    "lat": 35.726894,
    "lng": 139.711578,
    "default_ai_summary": "1994年創業の家系風とんこつ。深夜まで営業し、池袋の〆ラーメンとして定番。",
    "is_kitaichimeshi": true,
    "selection_tags": [
      "local_famous",
      "ramen_popular",
      "queue_popular"
    ],
    "selection_note": "地域で知名度の高い人気店として選定"
  },
  {
    "id": "gogocurry-ikebukuro-higashiguchi",
    "legacy_id": 35,
    "name": "ゴーゴーカレー 池袋東口スタジアム",
    "area_id": "ikebukuro",
    "genre": "カレー",
    "time_category": [
      "昼",
      "夜"
    ],
    "hours": "10:55〜21:55",
    "tags": [
      "サク飯",
      "ガッツリ",
      "一人OK"
    ],
    "address": "東京都豊島区南池袋1-23-2 ティワイズビルB1F",
    "lat": 35.728798,
    "lng": 139.712372,
    "default_ai_summary": "東口地下の金沢カレー。キャベツ食べ放題・回転速く、手頃にガッツリ補給できる。"
  },
  {
    "id": "sukiya-higashi-ikebukuro",
    "legacy_id": 36,
    "name": "すき家 東池袋店",
    "area_id": "ikebukuro",
    "genre": "丼もの",
    "time_category": [
      "朝",
      "昼",
      "夜"
    ],
    "hours": "4:00〜翌3:00（AM3:00〜4:00休業）",
    "tags": [
      "サク飯",
      "一人OK",
      "朝飯OK",
      "深夜OK"
    ],
    "address": "東京都豊島区東池袋1-31-1",
    "lat": 35.7308,
    "lng": 139.7138,
    "default_ai_summary": "東口徒歩3分の牛丼チェーン。早朝4時開店で長時間稼働、最速クラスの丼飯候補。"
  },
  {
    "id": "yoshinoya-ikebukuro-higashiguchi",
    "legacy_id": 37,
    "name": "吉野家 池袋東口店",
    "area_id": "ikebukuro",
    "genre": "丼もの",
    "time_category": [
      "朝",
      "昼",
      "夜"
    ],
    "hours": "24時間営業",
    "tags": [
      "サク飯",
      "一人OK",
      "朝飯OK",
      "深夜OK"
    ],
    "address": "東京都豊島区東池袋1-7-8",
    "lat": 35.7305,
    "lng": 139.714,
    "default_ai_summary": "東口至近の牛丼。券売機で素早く注文でき、休憩の合間にサクッと飯を済ませられる。"
  },
  {
    "id": "yakiniku-like-ikebukuro-higashiguchi",
    "legacy_id": 38,
    "name": "焼肉ライク 池袋東口店",
    "area_id": "ikebukuro",
    "genre": "焼肉",
    "time_category": [
      "昼",
      "夜"
    ],
    "hours": "11:00〜23:00",
    "tags": [
      "サク飯",
      "ガッツリ",
      "一人OK"
    ],
    "address": "東京都豊島区東池袋1-40-3 池袋籏ビル1F",
    "lat": 35.731937,
    "lng": 139.71373,
    "default_ai_summary": "東口徒歩1分の一人焼肉専門。無煙ロースターで気軽にスタミナチャージできる。"
  },
  {
    "id": "kurasushi-ikebukuro-nishiguchi",
    "legacy_id": 39,
    "name": "くら寿司 池袋駅西口店",
    "area_id": "ikebukuro",
    "genre": "回転寿司",
    "time_category": [
      "昼",
      "夜"
    ],
    "hours": "11:00〜24:00",
    "tags": [
      "サク飯",
      "一人OK",
      "深夜OK"
    ],
    "address": "東京都豊島区西池袋1-10-10 東武アネックスビルB1F",
    "lat": 35.729763,
    "lng": 139.709015,
    "default_ai_summary": "西口徒歩1分の回転寿司チェーン。深夜まで営業し、西口ホール圏からの軽食に使いやすい。"
  },
  {
    "id": "oedo-soba-ikebukuro",
    "legacy_id": 40,
    "name": "大江戸そば 池袋店",
    "area_id": "ikebukuro",
    "genre": "そば/うどん",
    "time_category": [
      "朝",
      "昼",
      "夜"
    ],
    "hours": "6:00〜23:00",
    "tags": [
      "サク飯",
      "一人OK",
      "朝飯OK"
    ],
    "address": "東京都豊島区南池袋1丁目 JR池袋駅構内",
    "lat": 35.7295,
    "lng": 139.7105,
    "default_ai_summary": "駅構内の立ち食いそば。6時開店で提供が速く、乗換・休憩の最速飯候補。"
  },
  {
    "id": "yasaburo-ikebukuro",
    "legacy_id": 41,
    "name": "弥三郎",
    "area_id": "ikebukuro",
    "genre": "そば/うどん",
    "time_category": [
      "昼",
      "夜"
    ],
    "hours": "11:00〜21:00",
    "tags": [
      "サク飯",
      "一人OK"
    ],
    "address": "東京都豊島区西池袋1-13-7",
    "lat": 35.7282,
    "lng": 139.7088,
    "default_ai_summary": "西口徒歩2分の町うどん老舗。安く早く、西池袋ホールからの休憩飯に重宝する。"
  },
  {
    "id": "nadai-fujisoba-shibuya-meiji-dori",
    "legacy_id": 42,
    "name": "名代 富士そば 明治通り店",
    "area_id": "shibuya",
    "genre": "そば/うどん",
    "time_category": [
      "朝",
      "昼",
      "夜"
    ],
    "hours": "24時間営業（3:00〜4:00休業）",
    "tags": [
      "サク飯",
      "一人OK",
      "深夜OK",
      "朝飯OK"
    ],
    "address": "東京都渋谷区渋谷1-14-15 森ビル1F",
    "lat": 35.6602,
    "lng": 139.7025,
    "default_ai_summary": "東口宮益坂交差点・明治通沿い。24時間営業の立ち食いそばで、道玄坂ホール圏からの最速飯候補。"
  },
  {
    "id": "ichiran-shibuya",
    "legacy_id": 43,
    "name": "一蘭 渋谷店",
    "area_id": "shibuya",
    "genre": "ラーメン",
    "time_category": [
      "昼",
      "夜"
    ],
    "hours": "24時間営業",
    "tags": [
      "サク飯",
      "一人OK",
      "深夜OK"
    ],
    "address": "東京都渋谷区神南1-22-7 岩本ビルB1F",
    "lat": 35.661076,
    "lng": 139.700928,
    "default_ai_summary": "ハチ公口徒歩3分・24時間の個室風カウンター。いつでもサクッと入れる渋谷の定番ラーメン。"
  },
  {
    "id": "kindenmaru-shibuya-dogenzaka",
    "legacy_id": 44,
    "name": "らーめん金伝丸",
    "area_id": "shibuya",
    "genre": "ラーメン",
    "time_category": [
      "昼",
      "夜"
    ],
    "hours": "11:00〜翌7:30",
    "tags": [
      "サク飯",
      "ガッツリ",
      "一人OK",
      "深夜OK"
    ],
    "address": "東京都渋谷区道玄坂2-9-2 渋専連ビル1F",
    "lat": 35.658833,
    "lng": 139.698288,
    "default_ai_summary": "西口徒歩1分の豚骨醤油ラーメン。深夜〜早朝まで営業し、道玄坂の〆麺として重宝する。",
    "is_kitaichimeshi": true,
    "selection_tags": [
      "notable_restaurant",
      "ramen_popular",
      "queue_popular"
    ],
    "selection_note": "ラーメン好きに人気の店舗として選定"
  },
  {
    "id": "yoshinoya-shibuya-dogenzaka-dori",
    "legacy_id": 45,
    "name": "吉野家 渋谷道玄坂通店",
    "area_id": "shibuya",
    "genre": "丼もの",
    "time_category": [
      "朝",
      "昼",
      "夜"
    ],
    "hours": "24時間営業",
    "tags": [
      "サク飯",
      "一人OK",
      "朝飯OK",
      "深夜OK"
    ],
    "address": "東京都渋谷区道玄坂2-25-12",
    "lat": 35.6602,
    "lng": 139.6975,
    "default_ai_summary": "道玄坂通りの24時間牛丼。券売機で素早く注文でき、大型ホールからの休憩飯に最適。"
  },
  {
    "id": "sukiya-shibuya-sakuragaoka",
    "legacy_id": 46,
    "name": "すき家 渋谷桜丘店",
    "area_id": "shibuya",
    "genre": "丼もの",
    "time_category": [
      "朝",
      "昼",
      "夜"
    ],
    "hours": "4:00〜翌3:00（AM3:00〜4:00休業）",
    "tags": [
      "サク飯",
      "一人OK",
      "朝飯OK",
      "深夜OK"
    ],
    "address": "東京都渋谷区桜丘町15-19",
    "lat": 35.6565,
    "lng": 139.7016,
    "default_ai_summary": "新南口・桜丘側の牛丼チェーン。早朝4時開店で長時間稼働、サクラステージ動線の最速丼候補。"
  },
  {
    "id": "sutadonya-shibuya",
    "legacy_id": 47,
    "name": "伝説のすた丼屋 渋谷店",
    "area_id": "shibuya",
    "genre": "丼もの",
    "time_category": [
      "昼",
      "夜"
    ],
    "hours": "11:00〜翌3:00",
    "tags": [
      "サク飯",
      "ガッツリ",
      "一人OK",
      "深夜OK"
    ],
    "address": "東京都渋谷区道玄坂2-6-7 道玄坂Tビル1F",
    "lat": 35.6587,
    "lng": 139.699,
    "default_ai_summary": "道玄坂徒歩2分の名物すた丼。ニンニク効いたガッツリ丼で、大型店からの腹ごしらえに最適。"
  },
  {
    "id": "katsuya-shibuya-dogenzaka",
    "legacy_id": 48,
    "name": "かつや 渋谷道玄坂店",
    "area_id": "shibuya",
    "genre": "とんかつ/カツ丼",
    "time_category": [
      "昼",
      "夜"
    ],
    "hours": "10:00〜23:00",
    "tags": [
      "サク飯",
      "一人OK"
    ],
    "address": "東京都渋谷区道玄坂2-9-2 正実ビル1F",
    "lat": 35.658803,
    "lng": 139.698231,
    "default_ai_summary": "西口徒歩1分のかつ丼・とんかつチェーン。提供が速く、道玄坂ホール圏の手軽な定番飯。"
  },
  {
    "id": "yakiniku-like-shibuya-dogenzaka",
    "legacy_id": 49,
    "name": "焼肉ライク 渋谷道玄坂店",
    "area_id": "shibuya",
    "genre": "焼肉",
    "time_category": [
      "昼",
      "夜"
    ],
    "hours": "11:00〜23:00（L.O. 22:30）",
    "tags": [
      "サク飯",
      "ガッツリ",
      "一人OK"
    ],
    "address": "東京都渋谷区道玄坂2-16-3 高葉屋ビル1F",
    "lat": 35.658752,
    "lng": 139.697098,
    "default_ai_summary": "道玄坂徒歩6分の一人焼肉専門。無煙ロースターで気軽にスタミナチャージできる。"
  },
  {
    "id": "kurasushi-shibuya-ekimae",
    "legacy_id": 50,
    "name": "くら寿司 渋谷駅前店",
    "area_id": "shibuya",
    "genre": "回転寿司",
    "time_category": [
      "昼",
      "夜"
    ],
    "hours": "平日11:00〜23:00、土日祝10:20〜23:00",
    "tags": [
      "サク飯",
      "一人OK"
    ],
    "address": "東京都渋谷区宇田川町23-3 渋谷第一勧銀共同ビル7F",
    "lat": 35.659691,
    "lng": 139.699615,
    "default_ai_summary": "ハチ公口徒歩1分の回転寿司チェーン。コスパ良好で、道玄坂ホール圏からの軽食に使いやすい。"
  },
  {
    "id": "matsuya-mycurry-shibuya-sakuragaoka",
    "legacy_id": 51,
    "name": "松屋・マイカリー食堂 渋谷桜丘店",
    "area_id": "shibuya",
    "genre": "カレー",
    "time_category": [
      "朝",
      "昼",
      "夜"
    ],
    "hours": "24時間営業",
    "tags": [
      "サク飯",
      "一人OK",
      "朝飯OK",
      "深夜OK"
    ],
    "address": "東京都渋谷区桜丘町1-4 渋谷サクラステージ SHIBUYAサイド 1F",
    "lat": 35.657,
    "lng": 139.702,
    "default_ai_summary": "サクラステージ1Fの24時間複合店。朝カレー530円台から牛丼まで、新南口動線の万能補給拠点。"
  },
  {
    "id": "nadai-fujisoba-ueno-ekimae",
    "legacy_id": 52,
    "name": "名代 富士そば 上野店",
    "area_id": "ueno",
    "genre": "そば/うどん",
    "time_category": [
      "朝",
      "昼",
      "夜"
    ],
    "hours": "24時間営業",
    "tags": [
      "サク飯",
      "一人OK",
      "深夜OK",
      "朝飯OK"
    ],
    "address": "東京都台東区上野7-2-1 上野駅前昭栄ビル",
    "lat": 35.7124,
    "lng": 139.7774,
    "default_ai_summary": "上野駅正面・24時間の立ち食いそば。券売機で最速提供、大型ホール圏の定番サク飯。"
  },
  {
    "id": "ichiran-ueno-atore",
    "legacy_id": 53,
    "name": "一蘭 アトレ上野山下口店",
    "area_id": "ueno",
    "genre": "ラーメン",
    "time_category": [
      "昼",
      "夜"
    ],
    "hours": "24時間営業",
    "tags": [
      "サク飯",
      "一人OK",
      "深夜OK"
    ],
    "address": "東京都台東区上野7-1-1 アトレ上野1F",
    "lat": 35.713696,
    "lng": 139.776917,
    "default_ai_summary": "アトレ上野内・24時間の個室風カウンター。山下口動線からサクッと入れる定番ラーメン。"
  },
  {
    "id": "matsuya-ueno",
    "legacy_id": 54,
    "name": "松屋 上野店",
    "area_id": "ueno",
    "genre": "カレー",
    "time_category": [
      "朝",
      "昼",
      "夜"
    ],
    "hours": "24時間営業",
    "tags": [
      "サク飯",
      "一人OK",
      "朝飯OK",
      "深夜OK"
    ],
    "address": "東京都台東区上野4-9-5 石井ビル1・2F",
    "lat": 35.71,
    "lng": 139.7738,
    "default_ai_summary": "不忍口徒歩5分の24時間牛丼・カレー。エスパス本館・新館からの手軽な補給拠点。"
  },
  {
    "id": "gogocurry-ueno-okachimachi",
    "legacy_id": 55,
    "name": "ゴーゴーカレー 上野御徒町店",
    "area_id": "ueno",
    "genre": "カレー",
    "time_category": [
      "昼",
      "夜"
    ],
    "hours": "10:55〜21:55（日祝20:55）",
    "tags": [
      "サク飯",
      "ガッツリ",
      "一人OK"
    ],
    "address": "東京都台東区上野6-2-7 宮入ビル1F",
    "lat": 35.708462,
    "lng": 139.775421,
    "default_ai_summary": "御徒町北口徒歩2分の金沢カレー。キャベツ食放題・回転速く、アメ横ホール圏の定番。"
  },
  {
    "id": "yoshinoya-ueno-ekimae",
    "legacy_id": 56,
    "name": "吉野家 上野駅前店",
    "area_id": "ueno",
    "genre": "丼もの",
    "time_category": [
      "朝",
      "昼",
      "夜"
    ],
    "hours": "4:00〜翌3:00",
    "tags": [
      "サク飯",
      "一人OK",
      "朝飯OK",
      "深夜OK"
    ],
    "address": "東京都台東区上野7-3-2 ピナクルプロパティーズ上野駅前ビル1F",
    "lat": 35.7124,
    "lng": 139.7777,
    "default_ai_summary": "上野駅正面の牛丼。早朝4時開店で長時間稼働、駅前ホールからの最速丼候補。"
  },
  {
    "id": "mcdonalds-ueno-okachimachi",
    "legacy_id": 57,
    "name": "マクドナルド 上野御徒町店",
    "area_id": "ueno",
    "genre": "ハンバーガー",
    "time_category": [
      "朝",
      "昼",
      "夜"
    ],
    "hours": "24時間営業",
    "tags": [
      "サク飯",
      "一人OK",
      "朝飯OK",
      "深夜OK"
    ],
    "address": "東京都台東区上野4-4 B&Vビル2F・3F",
    "lat": 35.7084,
    "lng": 139.7734,
    "default_ai_summary": "上野御徒町駅至近の24時間ファストフード。アメ横・御徒町動線の最速軽食。"
  },
  {
    "id": "sutadonya-okachimachi",
    "legacy_id": 58,
    "name": "伝説のすた丼屋 御徒町店",
    "area_id": "ueno",
    "genre": "丼もの",
    "time_category": [
      "昼",
      "夜"
    ],
    "hours": "11:00〜22:30（L.O. 22:00）",
    "tags": [
      "サク飯",
      "ガッツリ",
      "一人OK"
    ],
    "address": "東京都台東区上野3-20-7 GYOTOC ONEビル1F",
    "lat": 35.7059,
    "lng": 139.7741,
    "default_ai_summary": "御徒町徒歩2分の名物すた丼。ニンニク効いたガッツリ丼で腹ごしらえに最適。"
  },
  {
    "id": "katsuya-okachimachi-minamiguchi",
    "legacy_id": 59,
    "name": "かつや 御徒町南口店",
    "area_id": "ueno",
    "genre": "とんかつ/カツ丼",
    "time_category": [
      "昼",
      "夜"
    ],
    "hours": "10:00〜23:00",
    "tags": [
      "サク飯",
      "一人OK"
    ],
    "address": "東京都台東区上野5-20-3",
    "lat": 35.706108,
    "lng": 139.774384,
    "default_ai_summary": "御徒町南口徒歩1分のかつ丼チェーン。提供が速く、楽園アメ横店からの手軽な定番飯。"
  },
  {
    "id": "yakiniku-like-ueno",
    "legacy_id": 60,
    "name": "焼肉ライク 上野店",
    "area_id": "ueno",
    "genre": "焼肉",
    "time_category": [
      "昼",
      "夜"
    ],
    "hours": "10:00〜23:00（L.O. 22:30）",
    "tags": [
      "サク飯",
      "ガッツリ",
      "一人OK"
    ],
    "address": "東京都台東区上野4-8-3 MD上野ビル1F・2F",
    "lat": 35.709274,
    "lng": 139.773743,
    "default_ai_summary": "上野広小路駅徒歩1分の一人焼肉専門。無煙ロースターで気軽にスタミナチャージできる。"
  },
  {
    "id": "kurasushi-okachimachi",
    "legacy_id": 61,
    "name": "くら寿司 御徒町店",
    "area_id": "ueno",
    "genre": "回転寿司",
    "time_category": [
      "昼",
      "夜"
    ],
    "hours": "11:00〜23:00",
    "tags": [
      "サク飯",
      "一人OK"
    ],
    "address": "東京都台東区台東4-33-1 クロスポイント御徒町2F",
    "lat": 35.707176,
    "lng": 139.776596,
    "default_ai_summary": "仲御徒町駅徒歩1分の回転寿司チェーン。コスパ良好でアメ横ホール圏からの軽食に使いやすい。"
  },
  {
    "id": "ichiran-shinbashi",
    "legacy_id": 62,
    "name": "一蘭 新橋店",
    "area_id": "shinbashi",
    "genre": "ラーメン",
    "time_category": [
      "昼",
      "夜"
    ],
    "hours": "24時間営業",
    "tags": [
      "サク飯",
      "一人OK",
      "深夜OK"
    ],
    "address": "東京都港区新橋2-5-6 2F",
    "lat": 35.667744,
    "lng": 139.756058,
    "default_ai_summary": "新橋駅日比谷口徒歩3分のとんこつラーメン専門。個室風カウンターで、烏森口ホール圏の定番サク飯。"
  },
  {
    "id": "naokichi-shinbashi",
    "legacy_id": 63,
    "name": "麺処直久 新橋店",
    "area_id": "shinbashi",
    "genre": "ラーメン",
    "time_category": [
      "昼",
      "夜"
    ],
    "hours": "月〜金11:00〜23:00、土日祝11:00〜22:00",
    "tags": [
      "サク飯",
      "ガッツリ",
      "一人OK"
    ],
    "address": "東京都港区新橋2丁目地下街1号 ウィング新橋名店街",
    "lat": 35.666859,
    "lng": 139.757095,
    "default_ai_summary": "新橋駅汐留口・ウィング新橋地下1階の鶏出汁ラーメン。駅直結動線でBIGディッパー圏からの手軽な一杯。",
    "is_kitaichimeshi": true,
    "selection_tags": [
      "notable_restaurant",
      "ramen_popular",
      "station_near"
    ],
    "selection_note": "ラーメン好きに人気の店舗として選定"
  },
  {
    "id": "gogocurry-shinbashi-ekimae",
    "legacy_id": 64,
    "name": "ゴーゴーカレー 新橋駅前パーク",
    "area_id": "shinbashi",
    "genre": "カレー",
    "time_category": [
      "昼",
      "夜"
    ],
    "hours": "10:55〜22:55（L.O. 22:30）",
    "tags": [
      "サク飯",
      "ガッツリ",
      "一人OK"
    ],
    "address": "東京都港区新橋2-17-6",
    "lat": 35.667126,
    "lng": 139.758163,
    "default_ai_summary": "新橋駅銀座口すぐの金沢カレー。キャベツ食放題・提供が速く、駅前ホール圏の定番。"
  },
  {
    "id": "moyan-curry-shinbashi",
    "legacy_id": 65,
    "name": "もうやんカレー新橋店",
    "area_id": "shinbashi",
    "genre": "カレー",
    "time_category": [
      "昼",
      "夜"
    ],
    "hours": "11:30〜15:00、18:00〜23:00（L.O. 22:30）",
    "tags": [
      "サク飯",
      "ガッツリ",
      "一人OK"
    ],
    "address": "東京都港区新橋2-15-12 セントラルビル B1F",
    "lat": 35.666443,
    "lng": 139.756134,
    "default_ai_summary": "新橋駅徒歩3分の薬膳スパイスカレー。ボリューム感があり、長時間稼働ホールからの腹ごしらえに向く。"
  },
  {
    "id": "katsuya-shinbashi",
    "legacy_id": 66,
    "name": "かつや 新橋店",
    "area_id": "shinbashi",
    "genre": "とんかつ/カツ丼",
    "time_category": [
      "昼",
      "夜"
    ],
    "hours": "10:00〜23:00",
    "tags": [
      "サク飯",
      "一人OK"
    ],
    "address": "東京都港区新橋2-16-1 ニュー新橋ビル",
    "lat": 35.6667139,
    "lng": 139.7572771,
    "default_ai_summary": "烏森口徒歩1分のかつ丼チェーン。提供が速く、新橋UNO・BIGディッパー圏の手軽な定番飯。"
  },
  {
    "id": "yoshinoya-shinbashi-higashi",
    "legacy_id": 67,
    "name": "吉野家 新橋東店",
    "area_id": "shinbashi",
    "genre": "丼もの",
    "time_category": [
      "朝",
      "昼",
      "夜"
    ],
    "hours": "7:00〜23:00",
    "tags": [
      "サク飯",
      "一人OK",
      "朝飯OK"
    ],
    "address": "東京都港区新橋2-18-5",
    "lat": 35.6661,
    "lng": 139.7589,
    "default_ai_summary": "新橋駅東口徒歩2分の牛丼。早朝7時開店で、出勤前・休憩の最速丼候補。"
  },
  {
    "id": "nadai-fujisoba-shinbashi-ekimae",
    "legacy_id": 68,
    "name": "名代 富士そば 新橋駅前店",
    "area_id": "shinbashi",
    "genre": "そば/うどん",
    "time_category": [
      "朝",
      "昼",
      "夜"
    ],
    "hours": "24時間営業",
    "tags": [
      "サク飯",
      "一人OK",
      "朝飯OK",
      "深夜OK"
    ],
    "address": "東京都港区新橋2-6-7 花菱ビル",
    "lat": 35.6664,
    "lng": 139.7574,
    "default_ai_summary": "新橋駅前・24時間の立ち食いそば。券売機で最速提供、駅前大型ホール圏の定番サク飯。"
  },
  {
    "id": "mcdonalds-shinbashi-hibiya",
    "legacy_id": 69,
    "name": "マクドナルド 新橋日比谷口店",
    "area_id": "shinbashi",
    "genre": "ハンバーガー",
    "time_category": [
      "朝",
      "昼",
      "夜"
    ],
    "hours": "24時間営業",
    "tags": [
      "サク飯",
      "一人OK",
      "朝飯OK",
      "深夜OK"
    ],
    "address": "東京都港区新橋2-10-12",
    "lat": 35.6666,
    "lng": 139.757,
    "default_ai_summary": "新橋日比谷口・24時間のファストフード。駅直結動線からの最速軽食。"
  },
  {
    "id": "yakiniku-like-shinbashi-honkan",
    "legacy_id": 70,
    "name": "焼肉ライク 新橋本店",
    "area_id": "shinbashi",
    "genre": "焼肉",
    "time_category": [
      "朝",
      "昼",
      "夜"
    ],
    "hours": "平日7:00〜23:00、土日祝8:00〜23:00（L.O. 22:30）",
    "tags": [
      "サク飯",
      "ガッツリ",
      "一人OK",
      "朝飯OK"
    ],
    "address": "東京都港区新橋2-15-8 新橋W・Bビル 1F",
    "lat": 35.666443,
    "lng": 139.756134,
    "default_ai_summary": "烏森口徒歩1分の一人焼肉専門。無煙ロースターで気軽にスタミナチャージできる。"
  },
  {
    "id": "ichiban-kaiten-sushi-shinbashi",
    "legacy_id": 71,
    "name": "回転寿司 一番",
    "area_id": "shinbashi",
    "genre": "回転寿司",
    "time_category": [
      "昼",
      "夜"
    ],
    "hours": "11:00〜23:30（日曜11:00〜23:00）",
    "tags": [
      "サク飯",
      "一人OK"
    ],
    "address": "東京都港区新橋3-16-4",
    "lat": 35.665482,
    "lng": 139.756836,
    "default_ai_summary": "新橋3丁目の老舗回転寿司。烏森口徒歩1分で、新橋UNO・BIGディッパー圏からのコスパ重視の軽食に向く。",
    "is_kitaichimeshi": true,
    "selection_tags": [
      "local_standard",
      "notable_restaurant",
      "station_near"
    ],
    "selection_note": "地元利用者の多い店舗として選定"
  },
  {
    "id": "ginza-soryu",
    "legacy_id": 72,
    "name": "銀座 創龍",
    "area_id": "yurakucho",
    "genre": "ラーメン",
    "time_category": [
      "昼",
      "夜"
    ],
    "hours": "月〜土11:00〜翌3:00（L.O. 2:30）、日11:00〜23:00",
    "tags": [
      "サク飯",
      "ガッツリ",
      "一人OK",
      "深夜OK"
    ],
    "address": "東京都中央区銀座6-4-18 マキシ・ド・ピアビル1F",
    "lat": 35.6728,
    "lng": 139.7645,
    "default_ai_summary": "有楽町駅徒歩3分の醤油ラーメン。深夜まで営業で、有楽町DUO・UNO圏の締め一杯に使いやすい。",
    "is_kitaichimeshi": true,
    "selection_tags": [
      "notable_restaurant",
      "ramen_popular",
      "local_standard"
    ],
    "selection_note": "ラーメン好きに人気の店舗として選定"
  },
  {
    "id": "ramen-ichiro-ginza",
    "legacy_id": 73,
    "name": "らーめん一郎",
    "area_id": "yurakucho",
    "genre": "ラーメン",
    "time_category": [
      "昼",
      "夜"
    ],
    "hours": "平日・土11:00〜22:00（L.O. 21:40）、日・祝11:00〜21:00（L.O. 21:40）",
    "tags": [
      "サク飯",
      "ガッツリ",
      "一人OK"
    ],
    "address": "東京都中央区銀座3-2-13 江戸常ビル B1F",
    "lat": 35.6735,
    "lng": 139.764,
    "default_ai_summary": "有楽町駅徒歩2分の醤油つけ麺専門。青森産素材にこだわった一杯で、駅前ホール圏の定番。"
  },
  {
    "id": "moyan-curry-kyobashi",
    "legacy_id": 74,
    "name": "もうやんカレー 京橋店",
    "area_id": "yurakucho",
    "genre": "カレー",
    "time_category": [
      "昼",
      "夜"
    ],
    "hours": "月〜土11:30〜15:00、月〜金18:00〜22:00（L.O. 21:30）、土18:00〜22:00（L.O. 21:30）",
    "tags": [
      "サク飯",
      "ガッツリ",
      "一人OK"
    ],
    "address": "東京都中央区京橋3-1-1 東京スクエアガーデン B1F",
    "lat": 35.6768,
    "lng": 139.77,
    "default_ai_summary": "京橋駅直結・有楽町駅徒歩6分の薬膳スパイスカレー。ボリューム感があり、長時間稼働ホールからの腹ごしらえに向く。"
  },
  {
    "id": "cocoichiworld-kyobashi-edogrand",
    "legacy_id": 75,
    "name": "CURRY HOUSE CoCoICHIBANYA WORLD 京橋エドグラン店",
    "area_id": "yurakucho",
    "genre": "カレー",
    "time_category": [
      "昼",
      "夜"
    ],
    "hours": "11:00〜22:30（L.O. 22:00）",
    "tags": [
      "サク飯",
      "一人OK"
    ],
    "address": "東京都中央区京橋2-2-1 京橋エドグラン B1F B05",
    "lat": 35.6765,
    "lng": 139.7695,
    "default_ai_summary": "京橋駅直結のCoCo壱番屋コンセプト店。有楽町駅徒歩8分圏で、銀座口ホールからの手軽なカレー候補。"
  },
  {
    "id": "akebono-yurakucho",
    "legacy_id": 76,
    "name": "あけぼの",
    "area_id": "yurakucho",
    "genre": "とんかつ/カツ丼",
    "time_category": [
      "昼",
      "夜"
    ],
    "hours": "平日11:00〜15:00・17:00〜20:00、水・土・祝11:00〜16:00",
    "tags": [
      "サク飯",
      "ガッツリ",
      "一人OK"
    ],
    "address": "東京都千代田区有楽町2-10-1 東京交通会館 B1F",
    "lat": 35.6749,
    "lng": 139.7628,
    "default_ai_summary": "有楽町駅徒歩1分・交通会館地下の老舗とんかつ。名物かつ丼はコスパ良好で、DUO・UNO圏の定番飯。",
    "is_kitaichimeshi": true,
    "selection_tags": [
      "local_famous",
      "notable_restaurant",
      "hearty_meal",
      "station_near"
    ],
    "selection_note": "地域で知名度の高い人気店として選定"
  },
  {
    "id": "yoshinoya-yurakucho",
    "legacy_id": 77,
    "name": "吉野家 有楽町店",
    "area_id": "yurakucho",
    "genre": "丼もの",
    "time_category": [
      "朝",
      "昼",
      "夜"
    ],
    "hours": "24時間営業",
    "tags": [
      "サク飯",
      "一人OK",
      "朝飯OK",
      "深夜OK"
    ],
    "address": "東京都千代田区有楽町2-9-18",
    "lat": 35.6752,
    "lng": 139.762,
    "default_ai_summary": "有楽町駅徒歩1分の牛丼。24時間営業で、出勤前・休憩の最速丼候補。"
  },
  {
    "id": "yomoda-soba-yurakucho",
    "legacy_id": 78,
    "name": "よもだそば 有楽町店",
    "area_id": "yurakucho",
    "genre": "そば/うどん",
    "time_category": [
      "朝",
      "昼",
      "夜"
    ],
    "hours": "7:00〜23:00",
    "tags": [
      "サク飯",
      "一人OK",
      "朝飯OK"
    ],
    "address": "東京都千代田区有楽町2-4-1",
    "lat": 35.675,
    "lng": 139.7615,
    "default_ai_summary": "有楽町駅ガード下・朝7時から営業の立ち食いそば。券売機で最速提供、駅前ホール圏の定番サク飯。"
  },
  {
    "id": "mcdonalds-yurakucho-building",
    "legacy_id": 79,
    "name": "マクドナルド 有楽町ビルヂング店",
    "area_id": "yurakucho",
    "genre": "ハンバーガー",
    "time_category": [
      "朝",
      "昼",
      "夜"
    ],
    "hours": "平日7:10〜22:15、土日祝7:10〜21:15",
    "tags": [
      "サク飯",
      "一人OK",
      "朝飯OK"
    ],
    "address": "東京都千代田区有楽町1-10-1 有楽町ビルヂング B1F",
    "lat": 35.6755,
    "lng": 139.761,
    "default_ai_summary": "有楽町駅日比谷口徒歩15秒のファストフード。朝マック対応で、駅前ホール圏の最速軽食。"
  },
  {
    "id": "yakiniku-daigo-yurakucho",
    "legacy_id": 80,
    "name": "醍醐 有楽町店",
    "area_id": "yurakucho",
    "genre": "焼肉",
    "time_category": [
      "昼",
      "夜"
    ],
    "hours": "平日11:30〜14:30（L.O. 14:00）・17:00〜22:00（L.O. 21:30）、土日祝17:00〜22:00（L.O. 21:30）",
    "tags": [
      "サク飯",
      "ガッツリ",
      "一人OK"
    ],
    "address": "東京都千代田区有楽町1-6-1 第2日比谷ビル4F",
    "lat": 35.6758,
    "lng": 139.7618,
    "default_ai_summary": "有楽町駅徒歩3分の黒毛和牛焼肉。ランチ定食が手頃で、駅前大型ホールからのスタミナ補給に向く。",
    "is_kitaichimeshi": true,
    "selection_tags": [
      "notable_restaurant",
      "hearty_meal",
      "local_famous"
    ],
    "selection_note": "食事満足度が高い店舗として選定"
  },
  {
    "id": "kurasushi-ginza-flagship",
    "legacy_id": 81,
    "name": "くら寿司 グローバル旗艦店 銀座",
    "area_id": "yurakucho",
    "genre": "回転寿司",
    "time_category": [
      "昼",
      "夜"
    ],
    "hours": "平日11:00〜23:00（L.O. 22:30）、土日10:20〜23:00（L.O. 22:30）",
    "tags": [
      "サク飯",
      "一人OK"
    ],
    "address": "東京都中央区銀座3-2-1 マロニエゲート銀座2 7F",
    "lat": 35.673,
    "lng": 139.7665,
    "default_ai_summary": "有楽町駅徒歩4分の回転寿司旗艦店。コスパ良好で、銀座口ホール圏からの軽食に使いやすい。"
  },
  {
    "id": "manchiken-kinshicho",
    "legacy_id": 82,
    "name": "中華そば 満鶏軒",
    "area_id": "kinshicho",
    "genre": "ラーメン",
    "time_category": [
      "昼",
      "夜"
    ],
    "hours": "11:00〜21:00",
    "tags": [
      "サク飯",
      "ガッツリ",
      "一人OK"
    ],
    "address": "東京都墨田区江東橋2-5-3 井上ビル1F",
    "lat": 35.694065,
    "lng": 139.812088,
    "default_ai_summary": "錦糸町駅南口徒歩6分の鴨出汁ラーメン。行列覚悟の人気店で、南口大型ホール圏のご褒美一杯。",
    "is_kitaichimeshi": true,
    "selection_tags": [
      "local_famous",
      "notable_restaurant",
      "ramen_popular",
      "queue_popular"
    ],
    "selection_note": "地域で知名度の高い人気店として選定"
  },
  {
    "id": "hayashida-kinshicho",
    "legacy_id": 83,
    "name": "らぁ麺 はやし田 錦糸町店",
    "area_id": "kinshicho",
    "genre": "ラーメン",
    "time_category": [
      "昼",
      "夜"
    ],
    "hours": "10:00〜23:00",
    "tags": [
      "サク飯",
      "ガッツリ",
      "一人OK"
    ],
    "address": "東京都墨田区江東橋3-13-1 KS15ビル1F",
    "lat": 35.695766,
    "lng": 139.813538,
    "default_ai_summary": "錦糸町駅徒歩1分の醤油ラーメンチェーン。駅直結動線で、みとや北口・はやし田圏の手軽な定番。"
  },
  {
    "id": "curry-alba-kinshicho",
    "legacy_id": 84,
    "name": "カレーの市民 アルバ 錦糸町店",
    "area_id": "kinshicho",
    "genre": "カレー",
    "time_category": [
      "昼",
      "夜"
    ],
    "hours": "11:00〜22:00",
    "tags": [
      "サク飯",
      "ガッツリ",
      "一人OK"
    ],
    "address": "東京都墨田区江東橋3-7-10",
    "lat": 35.693981,
    "lng": 139.815002,
    "default_ai_summary": "錦糸町駅南口徒歩4分の金沢カレー。満塁ホームランカレーなどボリュームメニューが充実。",
    "is_kitaichimeshi": true,
    "selection_tags": [
      "notable_restaurant",
      "curry_popular",
      "hearty_meal"
    ],
    "selection_note": "ガッツリ飯需要に合う店舗として選定"
  },
  {
    "id": "cocoichi-kinshicho-minamiguchi",
    "legacy_id": 85,
    "name": "CoCo壱番屋 JR錦糸町駅南口店",
    "area_id": "kinshicho",
    "genre": "カレー",
    "time_category": [
      "昼",
      "夜"
    ],
    "hours": "11:00〜24:00",
    "tags": [
      "サク飯",
      "一人OK",
      "深夜OK"
    ],
    "address": "東京都墨田区江東橋3-7-9 CDビル 1F",
    "lat": 35.6959,
    "lng": 139.8133,
    "default_ai_summary": "錦糸町駅南口徒歩1分のカレーチェーン。深夜まで営業で、南口ホール圏の定番サク飯。"
  },
  {
    "id": "matsunoya-kinshicho",
    "legacy_id": 86,
    "name": "松のや 錦糸町店",
    "area_id": "kinshicho",
    "genre": "とんかつ/カツ丼",
    "time_category": [
      "朝",
      "昼",
      "夜"
    ],
    "hours": "平日5:00〜翌1:00（L.O. 30分前）、日5:00〜23:30",
    "tags": [
      "サク飯",
      "一人OK",
      "朝飯OK",
      "深夜OK"
    ],
    "address": "東京都墨田区江東橋3-9-15 第3魚寅ビル",
    "lat": 35.6961,
    "lng": 139.813,
    "default_ai_summary": "錦糸町駅南口徒歩2分のとんかつチェーン。早朝5時開店で、ヒノマル・みとや南口圏の手軽な定番飯。"
  },
  {
    "id": "yoshinoya-kinshicho-kitaguchi",
    "legacy_id": 87,
    "name": "吉野家 錦糸町北口店",
    "area_id": "kinshicho",
    "genre": "丼もの",
    "time_category": [
      "朝",
      "昼",
      "夜"
    ],
    "hours": "5:00〜翌2:00",
    "tags": [
      "サク飯",
      "一人OK",
      "朝飯OK",
      "深夜OK"
    ],
    "address": "東京都墨田区錦糸2-4-10 ライオンズマンション錦糸町第3",
    "lat": 35.6972,
    "lng": 139.8145,
    "default_ai_summary": "錦糸町駅北口徒歩1分の牛丼。早朝5時開店で、みとや北口・Super D'station圏の最速丼候補。"
  },
  {
    "id": "yoshinoya-kinshicho-minamiguchi",
    "legacy_id": 88,
    "name": "吉野家 錦糸町南口店",
    "area_id": "kinshicho",
    "genre": "丼もの",
    "time_category": [
      "昼",
      "夜"
    ],
    "hours": "24時間営業",
    "tags": [
      "サク飯",
      "一人OK",
      "深夜OK"
    ],
    "address": "東京都墨田区江東橋3-14-13 サンライズビル",
    "lat": 35.6962,
    "lng": 139.8132,
    "default_ai_summary": "錦糸町駅南口徒歩1分の牛丼。24時間営業で、南口大型ホール圏の最速丼候補。"
  },
  {
    "id": "nadai-fujisoba-kinshicho",
    "legacy_id": 89,
    "name": "名代 富士そば 錦糸町店",
    "area_id": "kinshicho",
    "genre": "そば/うどん",
    "time_category": [
      "朝",
      "昼",
      "夜"
    ],
    "hours": "24時間営業",
    "tags": [
      "サク飯",
      "一人OK",
      "朝飯OK",
      "深夜OK"
    ],
    "address": "東京都墨田区江東橋3-13-1 KS15ビル 1F",
    "lat": 35.6964,
    "lng": 139.8141,
    "default_ai_summary": "錦糸町駅南口徒歩1分・24時間の立ち食いそば。券売機で最速提供、駅前ホール圏の定番サク飯。"
  },
  {
    "id": "mcdonalds-kinshicho-plaza",
    "legacy_id": 90,
    "name": "マクドナルド 錦糸町駅前プラザビル店",
    "area_id": "kinshicho",
    "genre": "ハンバーガー",
    "time_category": [
      "朝",
      "昼",
      "夜"
    ],
    "hours": "24時間営業",
    "tags": [
      "サク飯",
      "一人OK",
      "朝飯OK",
      "深夜OK"
    ],
    "address": "東京都墨田区江東橋3-8-7 錦糸町駅前プラザビル",
    "lat": 35.6964,
    "lng": 139.8129,
    "default_ai_summary": "錦糸町駅南口徒歩1分・24時間のファストフード。駅直結動線からの最速軽食。"
  },
  {
    "id": "yakiniku-like-kinshicho-kitaguchi",
    "legacy_id": 91,
    "name": "焼肉ライク 錦糸町北口店",
    "area_id": "kinshicho",
    "genre": "焼肉",
    "time_category": [
      "昼",
      "夜"
    ],
    "hours": "10:00〜23:00（L.O. 22:30）",
    "tags": [
      "サク飯",
      "ガッツリ",
      "一人OK"
    ],
    "address": "東京都墨田区錦糸3-4-9 ジョッコビル2F",
    "lat": 35.697952,
    "lng": 139.814774,
    "default_ai_summary": "錦糸町駅北口徒歩2分の一人焼肉専門。無煙ロースターで気軽にスタミナチャージできる。"
  },
  {
    "id": "misaki-kinshicho-arcakit",
    "legacy_id": 92,
    "name": "回転寿司みさき アルカキット錦糸町",
    "area_id": "kinshicho",
    "genre": "回転寿司",
    "time_category": [
      "昼",
      "夜"
    ],
    "hours": "11:00〜22:30（L.O. 閉店30分前）",
    "tags": [
      "サク飯",
      "一人OK"
    ],
    "address": "東京都墨田区錦糸2-2-1 アルカキット錦糸町10F",
    "lat": 35.697659,
    "lng": 139.811859,
    "default_ai_summary": "錦糸町駅北口徒歩2分の回転寿司。コスパ良好で、北口ホール圏からの軽食に使いやすい。",
    "is_kitaichimeshi": true,
    "selection_tags": [
      "local_standard",
      "notable_restaurant",
      "station_near"
    ],
    "selection_note": "地元利用者の多い店舗として選定"
  },
  {
    "id": "sukiya-kinshicho-koennomae",
    "legacy_id": 93,
    "name": "すき家 錦糸公園前店",
    "area_id": "kinshicho",
    "genre": "丼もの",
    "time_category": [
      "朝",
      "昼",
      "夜"
    ],
    "hours": "4:00〜翌3:00（3:00〜4:00休業）",
    "tags": [
      "サク飯",
      "一人OK",
      "朝飯OK",
      "深夜OK"
    ],
    "address": "東京都墨田区太平3-4-8 グレイスMM 1F",
    "lat": 35.6952,
    "lng": 139.8118,
    "default_ai_summary": "錦糸町駅徒歩5分の牛丼。早朝4時開店で、南口ホール圏からの手軽な丼候補。"
  },
  {
    "id": "senju-chashumen-kitasenju",
    "legacy_id": 94,
    "name": "千住 チャーシュー軒",
    "area_id": "kitasenju",
    "genre": "ラーメン",
    "time_category": [
      "昼",
      "夜"
    ],
    "hours": "11:00〜翌4:00（金曜11:00〜翌7:00）",
    "tags": [
      "サク飯",
      "ガッツリ",
      "一人OK",
      "深夜OK"
    ],
    "address": "東京都足立区千住2-64-1 北千住Village 1F",
    "lat": 35.748703,
    "lng": 139.803726,
    "default_ai_summary": "北千住駅西口徒歩1分のチャーシュー麺専門。深夜まで営業で、西口ホール圏のご褒美一杯。",
    "is_kitaichimeshi": true,
    "selection_tags": [
      "local_famous",
      "notable_restaurant",
      "ramen_popular"
    ],
    "selection_note": "地域で知名度の高い人気店として選定"
  },
  {
    "id": "takanome-kitasenju",
    "legacy_id": 95,
    "name": "ラーメン鷹の目 北千住店",
    "area_id": "kitasenju",
    "genre": "ラーメン",
    "time_category": [
      "昼",
      "夜"
    ],
    "hours": "11:00〜15:00・17:00〜22:00",
    "tags": [
      "サク飯",
      "ガッツリ",
      "一人OK"
    ],
    "address": "東京都足立区千住2-29",
    "lat": 35.7505,
    "lng": 139.804,
    "default_ai_summary": "北千住駅西口徒歩4分の二郎系ラーメン。サンロード商店街脇で、コンサートホール圏のガッツリ飯。"
  },
  {
    "id": "matsuya-kitasenju",
    "legacy_id": 96,
    "name": "松屋 北千住店（マイカリー食堂併設）",
    "area_id": "kitasenju",
    "genre": "カレー",
    "time_category": [
      "朝",
      "昼",
      "夜"
    ],
    "hours": "24時間営業（マイカリー食堂は8:00〜24:00）",
    "tags": [
      "サク飯",
      "一人OK",
      "朝飯OK",
      "深夜OK"
    ],
    "address": "東京都足立区千住2-61",
    "lat": 35.75,
    "lng": 139.8038,
    "default_ai_summary": "北千住駅西口徒歩1分の牛丼・カレー。24時間営業で、ピーアーク・マルイ圏の最速補給拠点。"
  },
  {
    "id": "ippekoppe-kitasenju",
    "legacy_id": 97,
    "name": "とんかつ檍のカレー屋 いっぺこっぺ 北千住店",
    "area_id": "kitasenju",
    "genre": "カレー",
    "time_category": [
      "昼",
      "夜"
    ],
    "hours": "11:00〜21:00",
    "tags": [
      "サク飯",
      "ガッツリ",
      "一人OK"
    ],
    "address": "東京都足立区千住旭町40-27 ビックリヤ旭町ビル1F",
    "lat": 35.749485,
    "lng": 139.806656,
    "default_ai_summary": "北千住駅東口徒歩1分のカツカレー専門。檍系列のボリュームメニューで、東口ホール圏の定番。",
    "is_kitaichimeshi": true,
    "selection_tags": [
      "notable_restaurant",
      "curry_popular",
      "hearty_meal",
      "station_near"
    ],
    "selection_note": "食事満足度が高い店舗として選定"
  },
  {
    "id": "katsuya-kitasenju-nishiguchi",
    "legacy_id": 98,
    "name": "かつや 北千住西口店",
    "area_id": "kitasenju",
    "genre": "とんかつ/カツ丼",
    "time_category": [
      "朝",
      "昼",
      "夜"
    ],
    "hours": "平日8:00〜22:30（L.O. 22:00）、土日祝10:00〜22:30（L.O. 22:00）",
    "tags": [
      "サク飯",
      "一人OK",
      "朝飯OK"
    ],
    "address": "東京都足立区千住2-55",
    "lat": 35.7501,
    "lng": 139.8036,
    "default_ai_summary": "北千住駅西口徒歩1分のかつ丼チェーン。早朝8時開店で、西口大型ホールからの手軽な定番飯。"
  },
  {
    "id": "yoshinoya-kitasenju-honcho",
    "legacy_id": 99,
    "name": "吉野家 北千住本町商店街店",
    "area_id": "kitasenju",
    "genre": "丼もの",
    "time_category": [
      "朝",
      "昼",
      "夜"
    ],
    "hours": "7:00〜23:00",
    "tags": [
      "サク飯",
      "一人OK",
      "朝飯OK"
    ],
    "address": "東京都足立区千住2-31",
    "lat": 35.7503,
    "lng": 139.804,
    "default_ai_summary": "北千住駅西口徒歩1分の牛丼。朝7時開店で、宿場町通り・西口ホール圏の最速丼候補。"
  },
  {
    "id": "yoshinoya-ekia-kitasenju",
    "legacy_id": 100,
    "name": "吉野家 エキア北千住店",
    "area_id": "kitasenju",
    "genre": "丼もの",
    "time_category": [
      "昼",
      "夜"
    ],
    "hours": "10:00〜22:00",
    "tags": [
      "サク飯",
      "一人OK"
    ],
    "address": "東京都足立区千住旭町42-1 エキア北千住",
    "lat": 35.7495,
    "lng": 139.805,
    "default_ai_summary": "北千住駅東口・エキア北千住内の牛丼。改札直結動線で、ピーアークSSS圏の手軽な定番飯。"
  },
  {
    "id": "sukiya-kitasenju-nishiguchi",
    "legacy_id": 101,
    "name": "すき家 北千住西口店",
    "area_id": "kitasenju",
    "genre": "丼もの",
    "time_category": [
      "昼",
      "夜"
    ],
    "hours": "24時間営業",
    "tags": [
      "サク飯",
      "一人OK",
      "深夜OK"
    ],
    "address": "東京都足立区千住3-1-10",
    "lat": 35.7505,
    "lng": 139.803,
    "default_ai_summary": "北千住駅西口徒歩7分の牛丼。24時間営業で、コンサートホール圏からの手軽な丼候補。"
  },
  {
    "id": "nadai-fujisoba-kitasenju",
    "legacy_id": 102,
    "name": "名代 富士そば 北千住店",
    "area_id": "kitasenju",
    "genre": "そば/うどん",
    "time_category": [
      "朝",
      "昼",
      "夜"
    ],
    "hours": "24時間営業",
    "tags": [
      "サク飯",
      "一人OK",
      "朝飯OK",
      "深夜OK"
    ],
    "address": "東京都足立区千住2-61",
    "lat": 35.75,
    "lng": 139.8039,
    "default_ai_summary": "北千住駅西口徒歩1分・24時間の立ち食いそば。券売機で最速提供、マルイ・ピーアーク圏の定番サク飯。"
  },
  {
    "id": "mcdonalds-kitasenju-nishiguchi",
    "legacy_id": 103,
    "name": "マクドナルド 北千住西口店",
    "area_id": "kitasenju",
    "genre": "ハンバーガー",
    "time_category": [
      "朝",
      "昼",
      "夜"
    ],
    "hours": "24時間営業",
    "tags": [
      "サク飯",
      "一人OK",
      "朝飯OK",
      "深夜OK"
    ],
    "address": "東京都足立区千住2-62",
    "lat": 35.75,
    "lng": 139.8034,
    "default_ai_summary": "北千住駅西口広場直結のファストフード。24時間営業で、西口ホール圏の最速軽食。"
  },
  {
    "id": "yakiniku-like-kitasenju",
    "legacy_id": 104,
    "name": "焼肉ライク 北千住店",
    "area_id": "kitasenju",
    "genre": "焼肉",
    "time_category": [
      "昼",
      "夜"
    ],
    "hours": "11:00〜23:00（L.O. 22:30）",
    "tags": [
      "サク飯",
      "ガッツリ",
      "一人OK"
    ],
    "address": "東京都足立区千住2-26 やよいビル1F",
    "lat": 35.750137,
    "lng": 139.802155,
    "default_ai_summary": "北千住駅徒歩5分の一人焼肉専門。無煙ロースターで気軽にスタミナチャージできる。"
  },
  {
    "id": "ichiran-machida",
    "legacy_id": 107,
    "name": "一蘭 町田店",
    "area_id": "machida",
    "genre": "ラーメン",
    "time_category": [
      "昼",
      "夜"
    ],
    "hours": "24時間営業",
    "tags": [
      "サク飯",
      "一人OK",
      "深夜OK"
    ],
    "address": "東京都町田市原町田6-19-15 大星ビル 1F",
    "lat": 35.5423,
    "lng": 139.4475,
    "default_ai_summary": "町田駅北口徒歩3分のとんこつラーメン。24時間営業で、楽園・PIA圏の個室風カウンター定番。"
  },
  {
    "id": "hayashida-machida",
    "legacy_id": 108,
    "name": "らぁ麺 はやし田 町田店",
    "area_id": "machida",
    "genre": "ラーメン",
    "time_category": [
      "昼",
      "夜"
    ],
    "hours": "11:00〜23:00（金・土・祝前日は28:00）",
    "tags": [
      "サク飯",
      "ガッツリ",
      "一人OK",
      "深夜OK"
    ],
    "address": "東京都町田市原町田6-11-13 ホンタマビル 1F",
    "lat": 35.5419,
    "lng": 139.447,
    "default_ai_summary": "小田急町田駅徒歩2分の醤油ラーメン。深夜まで営業で、駅前大型ホール圏の手軽な定番一杯。"
  },
  {
    "id": "matsuya-machida",
    "legacy_id": 109,
    "name": "松屋 町田店",
    "area_id": "machida",
    "genre": "カレー",
    "time_category": [
      "朝",
      "昼",
      "夜"
    ],
    "hours": "4:00〜翌2:00（L.O. 15分前）",
    "tags": [
      "サク飯",
      "一人OK",
      "朝飯OK",
      "深夜OK"
    ],
    "address": "東京都町田市原町田4-4-15",
    "lat": 35.542,
    "lng": 139.448,
    "default_ai_summary": "町田駅南口徒歩2分の牛丼・カレー。早朝4時開店で、ともえ609・ターミナルロード圏の最速補給拠点。"
  },
  {
    "id": "cocoichi-machida-nakamachi",
    "legacy_id": 110,
    "name": "カレーハウスCoCo壱番屋 町田中町店",
    "area_id": "machida",
    "genre": "カレー",
    "time_category": [
      "昼",
      "夜"
    ],
    "hours": "11:00〜24:00",
    "tags": [
      "サク飯",
      "一人OK",
      "深夜OK"
    ],
    "address": "東京都町田市中町1-16-11 WING町田 1F",
    "lat": 35.5435,
    "lng": 139.4455,
    "default_ai_summary": "町田駅徒歩7分のカレーチェーン。深夜まで営業で、北口ホール圏からの手軽なカレー候補。"
  },
  {
    "id": "matsunoya-machida",
    "legacy_id": 111,
    "name": "松のや 町田店",
    "area_id": "machida",
    "genre": "とんかつ/カツ丼",
    "time_category": [
      "昼",
      "夜"
    ],
    "hours": "9:00〜23:30（L.O. 23:00）",
    "tags": [
      "サク飯",
      "一人OK"
    ],
    "address": "東京都町田市原町田4-4-14",
    "lat": 35.5419,
    "lng": 139.448,
    "default_ai_summary": "町田駅徒歩4分のとんかつチェーン。揚げたて定食が手頃で、南口・ターミナルロード圏の定番飯。"
  },
  {
    "id": "yoshinoya-odakyu-machida-minamiguchi",
    "legacy_id": 112,
    "name": "吉野家 小田急町田駅南口店",
    "area_id": "machida",
    "genre": "丼もの",
    "time_category": [
      "朝",
      "昼",
      "夜"
    ],
    "hours": "24時間営業",
    "tags": [
      "サク飯",
      "一人OK",
      "朝飯OK",
      "深夜OK"
    ],
    "address": "東京都町田市原町田6-11-7",
    "lat": 35.5417,
    "lng": 139.4468,
    "default_ai_summary": "小田急町田駅南口徒歩1分の牛丼。24時間営業で、楽園・駅前ホール圏の最速丼候補。"
  },
  {
    "id": "sukiya-machida-minamiguchi",
    "legacy_id": 113,
    "name": "すき家 JR町田駅南口店",
    "area_id": "machida",
    "genre": "丼もの",
    "time_category": [
      "朝",
      "昼",
      "夜"
    ],
    "hours": "4:00〜翌3:00（3:00〜4:00休業）",
    "tags": [
      "サク飯",
      "一人OK",
      "朝飯OK",
      "深夜OK"
    ],
    "address": "東京都町田市原町田1-2-6 第2ひろせビル 1F",
    "lat": 35.5408,
    "lng": 139.4462,
    "default_ai_summary": "JR町田駅南口徒歩3分の牛丼。早朝4時開店で、ともえ609・南口ホール圏の手軽な丼候補。"
  },
  {
    "id": "nadai-fujisoba-machida",
    "legacy_id": 114,
    "name": "名代 富士そば 町田店",
    "area_id": "machida",
    "genre": "そば/うどん",
    "time_category": [
      "朝",
      "昼",
      "夜"
    ],
    "hours": "4:00〜翌3:00",
    "tags": [
      "サク飯",
      "一人OK",
      "朝飯OK",
      "深夜OK"
    ],
    "address": "東京都町田市森野1-37-1 POPビル 1F",
    "lat": 35.5438,
    "lng": 139.4458,
    "default_ai_summary": "町田駅北口徒歩3分・早朝4時から営業の立ち食いそば。券売機で最速提供、北口ホール圏の定番サク飯。"
  },
  {
    "id": "mcdonalds-machida-ekimae",
    "legacy_id": 115,
    "name": "マクドナルド 町田駅前店",
    "area_id": "machida",
    "genre": "ハンバーガー",
    "time_category": [
      "朝",
      "昼",
      "夜"
    ],
    "hours": "24時間営業（1:00〜5:00はお持ち帰りのみ）",
    "tags": [
      "サク飯",
      "一人OK",
      "朝飯OK",
      "深夜OK"
    ],
    "address": "東京都町田市原町田6-6-14",
    "lat": 35.5416,
    "lng": 139.4472,
    "default_ai_summary": "町田駅前・町田ジョルナ直結のファストフード。24時間営業で、駅前大型ホール圏の最速軽食。"
  },
  {
    "id": "yakiniku-king-machida-ekimae",
    "legacy_id": 116,
    "name": "焼肉きんぐ 町田駅前店",
    "area_id": "machida",
    "genre": "焼肉",
    "time_category": [
      "昼",
      "夜"
    ],
    "hours": "11:00〜23:00（最終入店22:00）",
    "tags": [
      "サク飯",
      "ガッツリ",
      "一人OK"
    ],
    "address": "東京都町田市原町田4-11-14 コロンブスビル B1F",
    "lat": 35.5415,
    "lng": 139.446,
    "default_ai_summary": "町田駅徒歩3分の食べ放題焼肉。2026年オープンの駅前店で、楽園・ともえ圏のスタミナ補給に向く。"
  },
  {
    "id": "kurasushi-machida-jorna",
    "legacy_id": 117,
    "name": "くら寿司 町田ジョルナ店",
    "area_id": "machida",
    "genre": "回転寿司",
    "time_category": [
      "昼",
      "夜"
    ],
    "hours": "平日11:00〜23:00、土日祝10:30〜23:00（L.O. 閉店30分前）",
    "tags": [
      "サク飯",
      "一人OK"
    ],
    "address": "東京都町田市原町田6-6-14 町田ジョルナ B2F",
    "lat": 35.5416,
    "lng": 139.4473,
    "default_ai_summary": "町田駅徒歩2分の回転寿司。ジョルナ地下2階で、PIA・楽園圏からの軽食に使いやすい。"
  },
  {
    "id": "shioramen-shinka-machida-ekimae",
    "legacy_id": 118,
    "name": "町田汁場 しおらーめん 進化 町田駅前店",
    "area_id": "machida",
    "genre": "ラーメン",
    "time_category": [
      "昼",
      "夜"
    ],
    "hours": "11:00〜15:00・17:30〜22:00",
    "tags": [
      "サク飯",
      "ガッツリ",
      "一人OK"
    ],
    "address": "東京都町田市原町田4-6-15 1F",
    "lat": 35.5414,
    "lng": 139.4465,
    "default_ai_summary": "町田駅ターミナル口徒歩2分の塩ラーメン。進化系列の人気味で、駅前ホール圏のご褒美一杯。",
    "is_kitaichimeshi": true,
    "selection_tags": [
      "notable_restaurant",
      "ramen_popular",
      "local_famous"
    ],
    "selection_note": "ラーメン好きに人気の店舗として選定"
  },
  {
    "id": "sushiro-machida-kitaguchi",
    "legacy_id": 119,
    "name": "スシロー 町田北口店",
    "area_id": "machida",
    "genre": "回転寿司",
    "time_category": [
      "昼",
      "夜"
    ],
    "hours": "平日11:00〜23:00、土日祝10:30〜23:00（L.O. 閉店30分前）",
    "tags": [
      "サク飯",
      "一人OK"
    ],
    "address": "東京都町田市森野1-39-16 リード町田ビル 1F",
    "lat": 35.5436,
    "lng": 139.4455,
    "default_ai_summary": "小田急町田駅北口徒歩1分の回転寿司。コスパ良好で、北口大型ホール圏からの手軽な軽食。"
  },
  {
    "id": "ichiran-tachikawa",
    "legacy_id": 120,
    "name": "一蘭 立川店",
    "area_id": "tachikawa",
    "genre": "ラーメン",
    "time_category": [
      "昼",
      "夜"
    ],
    "hours": "24時間営業",
    "tags": [
      "サク飯",
      "一人OK",
      "深夜OK"
    ],
    "address": "東京都立川市錦町1-3-3",
    "lat": 35.69714,
    "lng": 139.415649,
    "default_ai_summary": "立川駅徒歩3分のとんこつラーメン。24時間営業で、南口大型ホール圏の個室風カウンター定番。"
  },
  {
    "id": "menderu-tachikawa",
    "legacy_id": 121,
    "name": "自家製麺 麺でる 立川店",
    "area_id": "tachikawa",
    "genre": "ラーメン",
    "time_category": [
      "昼",
      "夜"
    ],
    "hours": "11:00〜15:00・17:30〜22:00",
    "tags": [
      "サク飯",
      "ガッツリ",
      "一人OK"
    ],
    "address": "東京都立川市錦町1-2-13 中島ビル 1F",
    "lat": 35.696999,
    "lng": 139.416611,
    "default_ai_summary": "立川駅南口徒歩4分の二郎系ラーメン。南口ホール激戦区の人気店で、ボリューム重視の一杯に向く。",
    "is_kitaichimeshi": true,
    "selection_tags": [
      "local_famous",
      "notable_restaurant",
      "ramen_popular",
      "hearty_meal"
    ],
    "selection_note": "地域で知名度の高い人気店として選定"
  },
  {
    "id": "matsuya-tachikawa-shibasakicho",
    "legacy_id": 122,
    "name": "松屋 立川柴崎町店",
    "area_id": "tachikawa",
    "genre": "カレー",
    "time_category": [
      "朝",
      "昼",
      "夜"
    ],
    "hours": "24時間営業",
    "tags": [
      "サク飯",
      "一人OK",
      "朝飯OK",
      "深夜OK"
    ],
    "address": "東京都立川市柴崎町6-10-8",
    "lat": 35.6878284,
    "lng": 139.4077096,
    "default_ai_summary": "立川駅南口徒歩5分の牛丼・カレー。24時間営業で、楽園・プレゴ圏の最速補給拠点。"
  },
  {
    "id": "cocoichi-tachikawa-minamiguchi",
    "legacy_id": 123,
    "name": "カレーハウスCoCo壱番屋 JR立川駅南口店",
    "area_id": "tachikawa",
    "genre": "カレー",
    "time_category": [
      "昼",
      "夜"
    ],
    "hours": "11:00〜24:00",
    "tags": [
      "サク飯",
      "一人OK",
      "深夜OK"
    ],
    "address": "東京都立川市錦町2-2-2 下田ビル 1F",
    "lat": 35.695839,
    "lng": 139.416275,
    "default_ai_summary": "立川駅南口徒歩2分のカレーチェーン。深夜まで営業で、ジアス・プレゴ圏の定番サク飯。"
  },
  {
    "id": "matsunoya-tachikawa-shibasakicho",
    "legacy_id": 124,
    "name": "松のや 立川柴崎町店",
    "area_id": "tachikawa",
    "genre": "とんかつ/カツ丼",
    "time_category": [
      "朝",
      "昼",
      "夜"
    ],
    "hours": "8:00〜22:00（L.O. 21:30）",
    "tags": [
      "サク飯",
      "一人OK",
      "朝飯OK"
    ],
    "address": "東京都立川市柴崎町6-10-8",
    "lat": 35.6878284,
    "lng": 139.4077096,
    "default_ai_summary": "立川駅南口徒歩5分のとんかつチェーン。松屋併設で早朝8時から営業、南口ホール圏の定番飯。"
  },
  {
    "id": "katsuya-tachikawa-kitaguchi",
    "legacy_id": 125,
    "name": "かつや 立川北口店",
    "area_id": "tachikawa",
    "genre": "とんかつ/カツ丼",
    "time_category": [
      "昼",
      "夜"
    ],
    "hours": "10:30〜23:30（L.O. 23:00）",
    "tags": [
      "サク飯",
      "一人OK"
    ],
    "address": "東京都立川市曙町2-2-25 立川タクロス 1F",
    "lat": 35.698574,
    "lng": 139.412674,
    "default_ai_summary": "立川駅北口徒歩2分のとんかつチェーン。揚げたて定食が手頃で、D'station圏の定番飯。"
  },
  {
    "id": "yoshinoya-tachikawa-kitaguchi",
    "legacy_id": 126,
    "name": "吉野家 立川駅北口店",
    "area_id": "tachikawa",
    "genre": "丼もの",
    "time_category": [
      "朝",
      "昼",
      "夜"
    ],
    "hours": "24時間営業",
    "tags": [
      "サク飯",
      "一人OK",
      "朝飯OK",
      "深夜OK"
    ],
    "address": "東京都立川市曙町2-6-5",
    "lat": 35.6998,
    "lng": 139.4125,
    "default_ai_summary": "立川駅北口徒歩1分の牛丼。24時間営業で、D'station・北口デッキ圏の最速丼候補。"
  },
  {
    "id": "tenya-tachikawa-kitaguchi",
    "legacy_id": 127,
    "name": "天丼てんや 立川店",
    "area_id": "tachikawa",
    "genre": "丼もの",
    "time_category": [
      "昼",
      "夜"
    ],
    "hours": "11:00〜22:00（L.O. 閉店30分前）",
    "tags": [
      "サク飯",
      "一人OK"
    ],
    "address": "東京都立川市曙町2-5-18 第一東財曙ビル 1・2階",
    "lat": 35.7001,
    "lng": 139.4135,
    "default_ai_summary": "立川駅北口徒歩3分の天丼チェーン。揚げたて天丼が手軽で、北口ホール圏のサク飯候補。"
  },
  {
    "id": "nadai-fujisoba-tachikawa",
    "legacy_id": 128,
    "name": "名代 富士そば 立川店",
    "area_id": "tachikawa",
    "genre": "そば/うどん",
    "time_category": [
      "朝",
      "昼",
      "夜"
    ],
    "hours": "24時間営業",
    "tags": [
      "サク飯",
      "一人OK",
      "朝飯OK",
      "深夜OK"
    ],
    "address": "東京都立川市曙町2-11-2 フロム中武 1F",
    "lat": 35.699791,
    "lng": 139.414597,
    "default_ai_summary": "立川駅北口徒歩3分・24時間の立ち食いそば。券売機で最速提供、D'station圏の定番サク飯。"
  },
  {
    "id": "mcdonalds-tachikawa-minamiguchi",
    "legacy_id": 129,
    "name": "マクドナルド 立川駅南口店",
    "area_id": "tachikawa",
    "genre": "ハンバーガー",
    "time_category": [
      "朝",
      "昼",
      "夜"
    ],
    "hours": "24時間営業",
    "tags": [
      "サク飯",
      "一人OK",
      "朝飯OK",
      "深夜OK"
    ],
    "address": "東京都立川市柴崎町3-2-1",
    "lat": 35.6978,
    "lng": 139.414,
    "default_ai_summary": "立川駅南口徒歩1分のファストフード。24時間営業で、楽園・プレゴ圏の最速軽食。"
  },
  {
    "id": "yakiniku-like-tachikawa-minamiguchi",
    "legacy_id": 130,
    "name": "焼肉ライク 立川南口店",
    "area_id": "tachikawa",
    "genre": "焼肉",
    "time_category": [
      "昼",
      "夜"
    ],
    "hours": "10:00〜23:00（L.O. 22:30）",
    "tags": [
      "サク飯",
      "ガッツリ",
      "一人OK"
    ],
    "address": "東京都立川市柴崎町3-7-24",
    "lat": 35.697132,
    "lng": 139.41243,
    "default_ai_summary": "立川駅南口徒歩1分の一人焼肉専門。無煙ロースターで気軽にスタミナチャージできる。"
  },
  {
    "id": "sushiro-tachikawa-minamiguchi",
    "legacy_id": 131,
    "name": "スシロー 立川駅南口店",
    "area_id": "tachikawa",
    "genre": "回転寿司",
    "time_category": [
      "昼",
      "夜"
    ],
    "hours": "平日11:00〜23:00、土日祝10:30〜23:00（L.O. 閉店30分前）",
    "tags": [
      "サク飯",
      "一人OK"
    ],
    "address": "東京都立川市柴崎町3-4-10 小川ビル 2F",
    "lat": 35.696617,
    "lng": 139.415039,
    "default_ai_summary": "立川駅南口徒歩4分の回転寿司。コスパ良好で、南口大型ホール圏からの手軽な軽食。"
  },
  {
    "id": "ichiran-shinjuku-central-east",
    "legacy_id": 132,
    "name": "一蘭 新宿中央東口店",
    "area_id": "shinjuku",
    "genre": "ラーメン",
    "time_category": [
      "昼",
      "夜"
    ],
    "hours": "24時間営業",
    "tags": [
      "サク飯",
      "一人OK",
      "深夜OK"
    ],
    "address": "東京都新宿区新宿3-34-11 ピースビル B1F",
    "lat": 35.69062,
    "lng": 139.702759,
    "default_ai_summary": "新宿三丁目駅徒歩3分のとんこつラーメン。24時間営業で、東南口・歌舞伎町圏の個室風カウンター定番。"
  },
  {
    "id": "cocoichi-shinjuku-nishiguchi",
    "legacy_id": 133,
    "name": "カレーハウスCoCo壱番屋 新宿駅西口店",
    "area_id": "shinjuku",
    "genre": "カレー",
    "time_category": [
      "朝",
      "昼",
      "夜"
    ],
    "hours": "6:00〜4:30（L.O.）",
    "tags": [
      "サク飯",
      "一人OK",
      "朝飯OK",
      "深夜OK"
    ],
    "address": "東京都新宿区西新宿1-2-12",
    "lat": 35.6898,
    "lng": 139.699,
    "default_ai_summary": "新宿西口徒歩1分のカレーチェーン。早朝6時開店で、西口・カレイド圏の最速カレー候補。"
  },
  {
    "id": "yoshinoya-shinjuku-yasukuni-dori",
    "legacy_id": 134,
    "name": "吉野家 新宿靖国通り店",
    "area_id": "shinjuku",
    "genre": "丼もの",
    "time_category": [
      "朝",
      "昼",
      "夜"
    ],
    "hours": "24時間営業",
    "tags": [
      "サク飯",
      "一人OK",
      "朝飯OK",
      "深夜OK"
    ],
    "address": "東京都新宿区歌舞伎町1-6-3",
    "lat": 35.6942,
    "lng": 139.7015,
    "default_ai_summary": "歌舞伎町徒歩2分の牛丼。24時間営業で、エスパス・マルハン圏の最速丼候補。"
  },
  {
    "id": "sukiya-shinjuku-minami",
    "legacy_id": 135,
    "name": "すき家 新宿南店",
    "area_id": "shinjuku",
    "genre": "丼もの",
    "time_category": [
      "朝",
      "昼",
      "夜"
    ],
    "hours": "4:00〜翌3:00（3:00〜4:00休業）",
    "tags": [
      "サク飯",
      "一人OK",
      "朝飯OK",
      "深夜OK"
    ],
    "address": "東京都新宿区新宿3-32-2",
    "lat": 35.6905,
    "lng": 139.7025,
    "default_ai_summary": "新宿駅東南口徒歩1分の牛丼。早朝4時開店で、ベガスベガス・東南口圏の手軽な丼候補。"
  },
  {
    "id": "nadai-fujisoba-shinjuku",
    "legacy_id": 136,
    "name": "名代 富士そば 新宿店",
    "area_id": "shinjuku",
    "genre": "そば/うどん",
    "time_category": [
      "朝",
      "昼",
      "夜"
    ],
    "hours": "24時間営業（3:00〜3:45休業）",
    "tags": [
      "サク飯",
      "一人OK",
      "朝飯OK",
      "深夜OK"
    ],
    "address": "東京都新宿区新宿3-14-25 パークシティ3",
    "lat": 35.691,
    "lng": 139.7015,
    "default_ai_summary": "新宿三丁目駅徒歩2分・24時間の立ち食いそば。券売機で最速提供、駅前ホール圏の定番サク飯。"
  },
  {
    "id": "katsuya-ikebukuro-nishiguchi",
    "legacy_id": 137,
    "name": "かつや 池袋西口店",
    "area_id": "ikebukuro",
    "genre": "とんかつ/カツ丼",
    "time_category": [
      "朝",
      "昼",
      "夜"
    ],
    "hours": "7:00〜23:00（L.O. 22:30）",
    "tags": [
      "サク飯",
      "一人OK",
      "朝飯OK"
    ],
    "address": "東京都豊島区西池袋1-19-1 39ビル 1F",
    "lat": 35.7312,
    "lng": 139.7094,
    "default_ai_summary": "池袋駅西口徒歩1分のとんかつチェーン。早朝7時開店で、やすだ西池袋圏の定番飯。"
  },
  {
    "id": "cocoichi-ikebukuro-nishiguchi",
    "legacy_id": 138,
    "name": "カレーハウスCoCo壱番屋 豊島区西池袋店",
    "area_id": "ikebukuro",
    "genre": "カレー",
    "time_category": [
      "昼",
      "夜"
    ],
    "hours": "11:00〜24:00",
    "tags": [
      "サク飯",
      "一人OK",
      "深夜OK"
    ],
    "address": "東京都豊島区西池袋5-8-7 深野ビル 1F",
    "lat": 35.731,
    "lng": 139.7085,
    "default_ai_summary": "池袋駅西口徒歩3分のカレーチェーン。深夜まで営業で、西口ホール圏の手軽なカレー候補。"
  },
  {
    "id": "mcdonalds-ikebukuro-higashiguchi",
    "legacy_id": 139,
    "name": "マクドナルド 池袋東口店",
    "area_id": "ikebukuro",
    "genre": "ハンバーガー",
    "time_category": [
      "朝",
      "昼",
      "夜"
    ],
    "hours": "24時間営業（月曜2:00〜5:00はメンテナンス休業）",
    "tags": [
      "サク飯",
      "一人OK",
      "朝飯OK",
      "深夜OK"
    ],
    "address": "東京都豊島区南池袋1-27-8",
    "lat": 35.7295,
    "lng": 139.7129,
    "default_ai_summary": "池袋駅東口徒歩30秒のファストフード。24時間営業で、楽園・マルハン圏の最速軽食。"
  },
  {
    "id": "hayashida-ikebukuro",
    "legacy_id": 140,
    "name": "らぁ麺 はやし田 池袋店",
    "area_id": "ikebukuro",
    "genre": "ラーメン",
    "time_category": [
      "昼",
      "夜"
    ],
    "hours": "11:00〜23:00",
    "tags": [
      "サク飯",
      "ガッツリ",
      "一人OK"
    ],
    "address": "東京都豊島区東池袋1-40-10 川又ビル1F",
    "lat": 35.732231,
    "lng": 139.713882,
    "default_ai_summary": "池袋駅東口徒歩4分の醤油ラーメン。鶏出汁の定番一杯で、東口大型ホール圏の人気店。"
  },
  {
    "id": "nadai-fujisoba-ikebukuro-higashiguchi",
    "legacy_id": 141,
    "name": "名代 富士そば 池袋東口店",
    "area_id": "ikebukuro",
    "genre": "そば/うどん",
    "time_category": [
      "朝",
      "昼",
      "夜"
    ],
    "hours": "4:00〜翌3:00",
    "tags": [
      "サク飯",
      "一人OK",
      "朝飯OK",
      "深夜OK"
    ],
    "address": "東京都豊島区東池袋1-2-7 第3ナカムラビル",
    "lat": 35.7318,
    "lng": 139.714,
    "default_ai_summary": "池袋駅東口徒歩2分・早朝4時から営業の立ち食いそば。券売機で最速提供、東口ホール圏の定番サク飯。"
  },
  {
    "id": "hayashida-shibuya-utadacho",
    "legacy_id": 142,
    "name": "らぁ麺 はやし田 渋谷宇田川町店",
    "area_id": "shibuya",
    "genre": "ラーメン",
    "time_category": [
      "昼",
      "夜"
    ],
    "hours": "11:00〜23:00",
    "tags": [
      "サク飯",
      "ガッツリ",
      "一人OK"
    ],
    "address": "東京都渋谷区宇田川町31-9 ハナテイビル1F",
    "lat": 35.661118,
    "lng": 139.697815,
    "default_ai_summary": "渋谷駅徒歩5分の醤油ラーメン。2024年オープンのチェーン店で、道玄坂ホール圏の定番一杯。"
  },
  {
    "id": "cocoichi-shibuya-namikibashi",
    "legacy_id": 143,
    "name": "カレーハウスCoCo壱番屋 渋谷並木橋店",
    "area_id": "shibuya",
    "genre": "カレー",
    "time_category": [
      "昼",
      "夜"
    ],
    "hours": "11:00〜23:00",
    "tags": [
      "サク飯",
      "一人OK"
    ],
    "address": "東京都渋谷区渋谷3-15-5 パールビル 1F",
    "lat": 35.6588,
    "lng": 139.702,
    "default_ai_summary": "渋谷駅新南口徒歩3分のカレーチェーン。カスタマイズ自在で、駅前ホール圏の手軽なカレー候補。"
  },
  {
    "id": "mcdonalds-shibuya-center-gai",
    "legacy_id": 144,
    "name": "マクドナルド 渋谷センター街店",
    "area_id": "shibuya",
    "genre": "ハンバーガー",
    "time_category": [
      "朝",
      "昼",
      "夜"
    ],
    "hours": "7:00〜1:00",
    "tags": [
      "サク飯",
      "一人OK",
      "朝飯OK",
      "深夜OK"
    ],
    "address": "東京都渋谷区宇田川町28-15",
    "lat": 35.6608,
    "lng": 139.699,
    "default_ai_summary": "渋谷駅徒歩2分のファストフード。早朝7時開店で、ハチ公口・道玄坂圏の最速軽食。"
  },
  {
    "id": "komoro-soba-shibuya-shinnaniguchi",
    "legacy_id": 145,
    "name": "小諸そば 渋谷新南口店",
    "area_id": "shibuya",
    "genre": "そば/うどん",
    "time_category": [
      "朝",
      "昼",
      "夜"
    ],
    "hours": "平日7:00〜21:00、土7:00〜16:00、日祝8:00〜15:00",
    "tags": [
      "サク飯",
      "一人OK",
      "朝飯OK"
    ],
    "address": "東京都渋谷区渋谷3-17-4 山口ビル旧館 1F",
    "lat": 35.6585,
    "lng": 139.7025,
    "default_ai_summary": "渋谷駅新南口徒歩2分の立ち食いそば。早朝7時開店で、エスパス新館圏の神コスパサク飯。"
  },
  {
    "id": "sushiro-shibuya-ekimae",
    "legacy_id": 146,
    "name": "スシロー 渋谷駅前店",
    "area_id": "shibuya",
    "genre": "回転寿司",
    "time_category": [
      "昼",
      "夜"
    ],
    "hours": "平日11:00〜23:00、土日祝10:30〜23:00（L.O. 閉店30分前）",
    "tags": [
      "サク飯",
      "一人OK"
    ],
    "address": "東京都渋谷区宇田川町23-5 ハイマンテンビル6F",
    "lat": 35.65974,
    "lng": 139.69931,
    "default_ai_summary": "渋谷駅徒歩1分の回転寿司。くら寿司と併用しやすく、駅前ホール圏からの手軽な軽食。"
  },
  {
    "id": "sukiya-ueno-okachimachi-minamiguchi",
    "legacy_id": 147,
    "name": "すき家 御徒町駅南口店",
    "area_id": "ueno",
    "genre": "丼もの",
    "time_category": [
      "朝",
      "昼",
      "夜"
    ],
    "hours": "4:00〜翌3:00（3:00〜4:00休業）",
    "tags": [
      "サク飯",
      "一人OK",
      "朝飯OK",
      "深夜OK"
    ],
    "address": "東京都台東区上野5-27-2",
    "lat": 35.7075,
    "lng": 139.7748,
    "default_ai_summary": "御徒町南口徒歩1分の牛丼。早朝4時開店で、楽園アメ横店・エスパス圏の手軽な丼候補。"
  },
  {
    "id": "cocoichi-ueno-okachimachi-showadori",
    "legacy_id": 148,
    "name": "カレーハウスCoCo壱番屋 御徒町昭和通り店",
    "area_id": "ueno",
    "genre": "カレー",
    "time_category": [
      "昼",
      "夜"
    ],
    "hours": "11:00〜22:00（L.O.）",
    "tags": [
      "サク飯",
      "一人OK"
    ],
    "address": "東京都台東区上野5-15-17 東和ビル1F",
    "lat": 35.708,
    "lng": 139.775,
    "default_ai_summary": "仲御徒町駅徒歩2分のカレーチェーン。カスタマイズ自在で、御徒町ホール圏の手軽なカレー候補。"
  },
  {
    "id": "hayashida-ueno-okachimachi",
    "legacy_id": 149,
    "name": "らぁ麺 はやし田 上野御徒町店",
    "area_id": "ueno",
    "genre": "ラーメン",
    "time_category": [
      "昼",
      "夜"
    ],
    "hours": "10:00〜23:00",
    "tags": [
      "サク飯",
      "ガッツリ",
      "一人OK"
    ],
    "address": "東京都台東区上野4-5-2 ツルヤビル",
    "lat": 35.708698,
    "lng": 139.773727,
    "default_ai_summary": "上野御徒町駅徒歩2分の醤油ラーメン。2025年オープンのチェーン店で、アメ横ホール圏の定番一杯。"
  },
  {
    "id": "komoro-soba-ueno-okachimachi",
    "legacy_id": 150,
    "name": "小諸そば 御徒町店",
    "area_id": "ueno",
    "genre": "そば/うどん",
    "time_category": [
      "朝",
      "昼",
      "夜"
    ],
    "hours": "平日7:00〜22:00、土日祝9:00〜18:00",
    "tags": [
      "サク飯",
      "一人OK",
      "朝飯OK"
    ],
    "address": "東京都台東区上野5-22-8",
    "lat": 35.706623,
    "lng": 139.775345,
    "default_ai_summary": "御徒町南口徒歩1分の立ち食いそば。早朝7時開店で、楽園アメ横店からの神コスパサク飯。"
  },
  {
    "id": "sushiro-ueno",
    "legacy_id": 151,
    "name": "スシロー 上野店",
    "area_id": "ueno",
    "genre": "回転寿司",
    "time_category": [
      "昼",
      "夜"
    ],
    "hours": "平日11:00〜23:00、土日祝10:30〜23:00（L.O. 閉店30分前）",
    "tags": [
      "サク飯",
      "一人OK"
    ],
    "address": "東京都台東区上野6-9-9 上野オリエンタルビルB1",
    "lat": 35.709976,
    "lng": 139.77507,
    "default_ai_summary": "御徒町駅徒歩3分の回転寿司。くら寿司と併用しやすく、上野・御徒町ホール圏からの軽食に最適。"
  },
  {
    "id": "sukiya-shinbashi-sanchome",
    "legacy_id": 152,
    "name": "すき家 新橋三丁目店",
    "area_id": "shinbashi",
    "genre": "丼もの",
    "time_category": [
      "朝",
      "昼",
      "夜"
    ],
    "hours": "4:00〜翌3:00（3:00〜4:00休業）",
    "tags": [
      "サク飯",
      "一人OK",
      "朝飯OK",
      "深夜OK"
    ],
    "address": "東京都港区新橋3-10-9",
    "lat": 35.6675,
    "lng": 139.7565,
    "default_ai_summary": "新橋駅烏森口徒歩3分の牛丼。早朝4時開店で、BIGディッパー・UNO圏の手軽な丼候補。"
  },
  {
    "id": "komoro-soba-shinbashi",
    "legacy_id": 153,
    "name": "小諸そば 新橋店",
    "area_id": "shinbashi",
    "genre": "そば/うどん",
    "time_category": [
      "朝",
      "昼",
      "夜"
    ],
    "hours": "平日7:00〜22:00、土日祝7:00〜21:00（奇数月第2日曜定休）",
    "tags": [
      "サク飯",
      "一人OK",
      "朝飯OK"
    ],
    "address": "東京都港区新橋2-16-1 ニュー新橋ビル1F",
    "lat": 35.666424,
    "lng": 139.757451,
    "default_ai_summary": "新橋駅烏森口徒歩1分の立ち食いそば。早朝7時開店で、駅前大型ホール圏の神コスパサク飯。"
  },
  {
    "id": "matsunoya-shinbashi",
    "legacy_id": 154,
    "name": "松のや 新橋店",
    "area_id": "shinbashi",
    "genre": "とんかつ/カツ丼",
    "time_category": [
      "朝",
      "昼",
      "夜"
    ],
    "hours": "月8:00〜翌1:00、火〜木24時間営業、土日祝8:00〜23:00",
    "tags": [
      "サク飯",
      "一人OK",
      "朝飯OK",
      "深夜OK"
    ],
    "address": "東京都港区新橋2-2-5 丸山ビル1F",
    "lat": 35.6677,
    "lng": 139.7553,
    "default_ai_summary": "内幸町駅徒歩2分のとんかつチェーン。深夜営業ありで、新橋UNO・日比谷口圏の手軽な定番飯。"
  },
  {
    "id": "cocoichi-shinbashi-onarimon",
    "legacy_id": 155,
    "name": "カレーハウスCoCo壱番屋 港区御成門駅前店",
    "area_id": "shinbashi",
    "genre": "カレー",
    "time_category": [
      "昼",
      "夜"
    ],
    "hours": "11:00〜23:30（L.O.）",
    "tags": [
      "サク飯",
      "一人OK"
    ],
    "address": "東京都港区西新橋3-24-5 御成門ビル1F・2F",
    "lat": 35.668,
    "lng": 139.7515,
    "default_ai_summary": "御成門駅徒歩2分・新橋駅徒歩5分のカレーチェーン。カスタマイズ自在で、新橋ホール圏の手軽なカレー候補。"
  },
  {
    "id": "hayashida-shinbashi",
    "legacy_id": 156,
    "name": "らぁ麺 はやし田 新橋店",
    "area_id": "shinbashi",
    "genre": "ラーメン",
    "time_category": [
      "昼",
      "夜"
    ],
    "hours": "10:00〜23:00（奇数月第2日曜定休）",
    "tags": [
      "サク飯",
      "ガッツリ",
      "一人OK"
    ],
    "address": "東京都港区新橋2-16-1 ニュー新橋ビル1階112号室",
    "lat": 35.666309,
    "lng": 139.757401,
    "default_ai_summary": "新橋駅烏森口徒歩2分の醤油ラーメン。ニュー新橋ビル内で、BIGディッパー圏の定番一杯。"
  },
  {
    "id": "sukiya-tokyo-kyobashi",
    "legacy_id": 157,
    "name": "すき家 東京駅京橋店",
    "area_id": "yurakucho",
    "genre": "丼もの",
    "time_category": [
      "朝",
      "昼",
      "夜"
    ],
    "hours": "4:00〜翌3:00（3:00〜4:00休業）",
    "tags": [
      "サク飯",
      "一人OK",
      "朝飯OK",
      "深夜OK"
    ],
    "address": "東京都中央区京橋1-1-9 レオ八重洲ビル1F",
    "lat": 35.6769,
    "lng": 139.7698,
    "default_ai_summary": "京橋駅徒歩2分・有楽町駅徒歩8分の牛丼。早朝4時開店で、DUO・UNO圏からの手軽な丼候補。"
  },
  {
    "id": "hanamaru-udon-ginza-five",
    "legacy_id": 158,
    "name": "はなまるうどん 銀座ファイブ店",
    "area_id": "yurakucho",
    "genre": "そば/うどん",
    "time_category": [
      "昼",
      "夜"
    ],
    "hours": "10:00〜21:30（L.O. 21:00）",
    "tags": [
      "サク飯",
      "一人OK"
    ],
    "address": "東京都中央区銀座5-1 銀座ファイブ B1F",
    "lat": 35.6712,
    "lng": 139.7642,
    "default_ai_summary": "有楽町駅徒歩5分の讃岐うどん。セルフ方式で最速提供、銀座口ホール圏の手軽な麺候補。"
  },
  {
    "id": "sushiro-yurakucho-aune",
    "legacy_id": 159,
    "name": "スシロー aune有楽町店",
    "area_id": "yurakucho",
    "genre": "回転寿司",
    "time_category": [
      "昼",
      "夜"
    ],
    "hours": "平日11:00〜23:00、土日祝10:30〜23:00（L.O. 閉店30分前）",
    "tags": [
      "サク飯",
      "一人OK"
    ],
    "address": "東京都千代田区有楽町2-3-5 aune有楽町2F",
    "lat": 35.6733,
    "lng": 139.7615,
    "default_ai_summary": "有楽町駅・日比谷駅徒歩1分の回転寿司。くら寿司旗艦店と併用しやすく、DUO圏からの軽食に最適。"
  },
  {
    "id": "sushiro-yurakucho-biccamera",
    "legacy_id": 160,
    "name": "スシロー 有楽町店",
    "area_id": "yurakucho",
    "genre": "回転寿司",
    "time_category": [
      "昼",
      "夜"
    ],
    "hours": "平日10:30〜22:30、土日祝10:00〜22:30（L.O. 閉店15分前）",
    "tags": [
      "サク飯",
      "一人OK"
    ],
    "address": "東京都千代田区有楽町1-11-1 ビックカメラ有楽町店内6F",
    "lat": 35.6751,
    "lng": 139.7632,
    "default_ai_summary": "有楽町駅徒歩1分の回転寿司。駅直結動線で、有楽町UNO・DUO圏からの最速軽食。"
  },
  {
    "id": "nakau-tokyo-marunouchi-kitaguchi",
    "legacy_id": 161,
    "name": "なか卯 東京駅丸の内北口店",
    "area_id": "yurakucho",
    "genre": "丼もの",
    "time_category": [
      "朝",
      "昼",
      "夜"
    ],
    "hours": "4:00〜翌3:00（3:00〜4:00休業）",
    "tags": [
      "サク飯",
      "一人OK",
      "朝飯OK",
      "深夜OK"
    ],
    "address": "東京都千代田区丸の内1-7-7",
    "lat": 35.6815,
    "lng": 139.766,
    "default_ai_summary": "東京駅丸の内北口徒歩1分の牛丼。早朝4時開店で、有楽町駅から地下通路経由の手軽な丼候補。"
  },
  {
    "id": "sukiya-sunrise-kamata",
    "legacy_id": 162,
    "name": "すき家 サンライズ蒲田店",
    "area_id": "kamata",
    "genre": "丼もの",
    "time_category": [
      "朝",
      "昼",
      "夜"
    ],
    "hours": "4:00〜翌3:00（3:00〜4:00休業）",
    "tags": [
      "サク飯",
      "一人OK",
      "朝飯OK",
      "深夜OK"
    ],
    "address": "東京都大田区西蒲田7-51-2 ベルコーサ1F",
    "lat": 35.564,
    "lng": 139.7148,
    "default_ai_summary": "蒲田駅西口徒歩3分の牛丼。早朝4時開店で、楽園・キコーナ圏の最速丼候補。"
  },
  {
    "id": "sukiya-keikyu-kamata",
    "legacy_id": 163,
    "name": "すき家 京急蒲田駅前店",
    "area_id": "kamata",
    "genre": "丼もの",
    "time_category": [
      "朝",
      "昼",
      "夜"
    ],
    "hours": "4:00〜翌3:00（3:00〜4:00休業）",
    "tags": [
      "サク飯",
      "一人OK",
      "朝飯OK",
      "深夜OK"
    ],
    "address": "東京都大田区蒲田4-50-11 ウィングキッチン京急蒲田 1F205",
    "lat": 35.5598,
    "lng": 139.7168,
    "default_ai_summary": "京急蒲田駅直結の牛丼。24時間営業で、東口マルハン圏からも歩いて行きやすい丼候補。"
  },
  {
    "id": "yoshinoya-kamata-higashiguchi",
    "legacy_id": 164,
    "name": "吉野家 蒲田東口店",
    "area_id": "kamata",
    "genre": "丼もの",
    "time_category": [
      "朝",
      "昼",
      "夜"
    ],
    "hours": "24時間営業",
    "tags": [
      "サク飯",
      "一人OK",
      "朝飯OK",
      "深夜OK"
    ],
    "address": "東京都大田区蒲田5-24-3",
    "lat": 35.562,
    "lng": 139.7185,
    "default_ai_summary": "蒲田駅東口徒歩4分の牛丼。24時間営業で、マルハン蒲田1・7圏の定番サク飯。"
  },
  {
    "id": "matsuya-kamata-higashiguchi",
    "legacy_id": 165,
    "name": "松屋 蒲田東口店",
    "area_id": "kamata",
    "genre": "カレー",
    "time_category": [
      "朝",
      "昼",
      "夜"
    ],
    "hours": "24時間営業",
    "tags": [
      "サク飯",
      "一人OK",
      "朝飯OK",
      "深夜OK"
    ],
    "address": "東京都大田区蒲田5-25-2 コーポ橋本1F",
    "lat": 35.5624,
    "lng": 139.719,
    "default_ai_summary": "蒲田駅東口徒歩4分の牛丼・カレー。24時間営業で、東口大型ホール圏の最速補給拠点。"
  },
  {
    "id": "cocoichi-kamata-higashiguchi",
    "legacy_id": 166,
    "name": "カレーハウスCoCo壱番屋 JR蒲田駅東口店",
    "area_id": "kamata",
    "genre": "カレー",
    "time_category": [
      "昼",
      "夜"
    ],
    "hours": "11:00〜22:00（L.O.）",
    "tags": [
      "サク飯",
      "一人OK"
    ],
    "address": "東京都大田区蒲田5-16-9 中村ビル1F",
    "lat": 35.5615,
    "lng": 139.7182,
    "default_ai_summary": "蒲田駅東口徒歩2分のカレーチェーン。カスタマイズ自在で、マルハン東口圏の手軽なカレー候補。"
  },
  {
    "id": "hanamaru-udon-kamata",
    "legacy_id": 167,
    "name": "はなまるうどん 蒲田店",
    "area_id": "kamata",
    "genre": "そば/うどん",
    "time_category": [
      "朝",
      "昼",
      "夜"
    ],
    "hours": "9:00〜22:30（L.O. 閉店30分前）",
    "tags": [
      "サク飯",
      "一人OK",
      "朝飯OK"
    ],
    "address": "東京都大田区西蒲田7-3-3",
    "lat": 35.5628,
    "lng": 139.7155,
    "default_ai_summary": "蒲田駅西口徒歩2分の讃岐うどん。セルフ形式で最速提供、楽園蒲田圏の定番サク飯。"
  },
  {
    "id": "nadai-fujisoba-kamata",
    "legacy_id": 168,
    "name": "名代富士そば 蒲田店",
    "area_id": "kamata",
    "genre": "そば/うどん",
    "time_category": [
      "朝",
      "昼",
      "夜"
    ],
    "hours": "24時間営業",
    "tags": [
      "サク飯",
      "一人OK",
      "朝飯OK",
      "深夜OK"
    ],
    "address": "東京都大田区蒲田5-1-2",
    "lat": 35.5618,
    "lng": 139.7175,
    "default_ai_summary": "蒲田駅東口徒歩2分の立ち食いそば。24時間営業で、東口ホール圏の神コスパサク飯。"
  },
  {
    "id": "katsuya-kamata",
    "legacy_id": 169,
    "name": "かつや 蒲田店",
    "area_id": "kamata",
    "genre": "とんかつ/カツ丼",
    "time_category": [
      "昼",
      "夜"
    ],
    "hours": "10:30〜23:30（L.O. 23:00）",
    "tags": [
      "サク飯",
      "一人OK"
    ],
    "address": "東京都大田区西蒲田7-2-3",
    "lat": 35.563,
    "lng": 139.7138,
    "default_ai_summary": "蒲田駅西口徒歩3分のとんかつチェーン。揚げたて定食が手頃で、キコーナ圏の定番飯。"
  },
  {
    "id": "mcdonalds-kamata-higashiguchi",
    "legacy_id": 170,
    "name": "マクドナルド 蒲田駅東口店",
    "area_id": "kamata",
    "genre": "ハンバーガー",
    "time_category": [
      "朝",
      "昼",
      "夜"
    ],
    "hours": "24時間営業",
    "tags": [
      "サク飯",
      "一人OK",
      "朝飯OK",
      "深夜OK"
    ],
    "address": "東京都大田区蒲田5-13-1",
    "lat": 35.561,
    "lng": 139.7178,
    "default_ai_summary": "蒲田駅東口徒歩2分のファストフード。24時間営業で、マルハン東口圏の最速軽食。"
  },
  {
    "id": "yakiniku-like-kamata",
    "legacy_id": 172,
    "name": "焼肉ライク 蒲田西口店",
    "area_id": "kamata",
    "genre": "焼肉",
    "time_category": [
      "昼",
      "夜"
    ],
    "hours": "10:00〜23:00（L.O. 22:30）",
    "tags": [
      "サク飯",
      "ガッツリ",
      "一人OK"
    ],
    "address": "東京都大田区西蒲田7-4-8 加納ビル1F",
    "lat": 35.563702,
    "lng": 139.716019,
    "default_ai_summary": "蒲田駅西口徒歩1分の一人焼肉専門。工学院通り商店街入口近くで、無煙ロースターによる手軽なスタミナ飯。"
  },
  {
    "id": "tenya-kamata",
    "legacy_id": 174,
    "name": "天丼てんや 蒲田店",
    "area_id": "kamata",
    "genre": "丼もの",
    "time_category": [
      "昼",
      "夜"
    ],
    "hours": "11:00〜22:00（L.O. 閉店30分前）",
    "tags": [
      "サク飯",
      "一人OK"
    ],
    "address": "東京都大田区蒲田5-18-3",
    "lat": 35.5616,
    "lng": 139.7188,
    "default_ai_summary": "蒲田駅東口徒歩3分の天丼チェーン。揚げたて天丼が手軽で、東口ホール圏のサク飯候補。"
  },
  {
    "id": "nakau-kamata",
    "legacy_id": 175,
    "name": "なか卯 蒲田店",
    "area_id": "kamata",
    "genre": "丼もの",
    "time_category": [
      "朝",
      "昼",
      "夜"
    ],
    "hours": "4:00〜翌3:00（3:00〜4:00休業）",
    "tags": [
      "サク飯",
      "一人OK",
      "朝飯OK",
      "深夜OK"
    ],
    "address": "東京都大田区西蒲田7-5-2",
    "lat": 35.5626,
    "lng": 139.7152,
    "default_ai_summary": "蒲田駅西口徒歩2分の牛丼。早朝4時開店で、楽園蒲田圏の手軽な丼候補。"
  },
  {
    "id": "sukiya-gotanda-nishigotanda",
    "legacy_id": 176,
    "name": "すき家 西五反田一丁目店",
    "area_id": "gotanda",
    "genre": "丼もの",
    "time_category": [
      "朝",
      "昼",
      "夜"
    ],
    "hours": "4:00〜翌3:00（3:00〜4:00休業）",
    "tags": [
      "サク飯",
      "一人OK",
      "朝飯OK",
      "深夜OK"
    ],
    "address": "東京都品川区西五反田1-24-4",
    "lat": 35.6255,
    "lng": 139.7225,
    "default_ai_summary": "五反田駅徒歩3分の牛丼。早朝4時開店で、ジャラン・マーメイド圏の最速丼候補。"
  },
  {
    "id": "sushiro-gotanda",
    "legacy_id": 177,
    "name": "スシロー 五反田店",
    "area_id": "gotanda",
    "genre": "回転寿司",
    "time_category": [
      "昼",
      "夜"
    ],
    "hours": "月〜金11:00〜23:00、土日祝10:30〜23:00（L.O. 閉店30分前）",
    "tags": [
      "サク飯",
      "一人OK"
    ],
    "address": "東京都品川区西五反田1-3-8 五反田PLACEビルB1",
    "lat": 35.6252,
    "lng": 139.7228,
    "default_ai_summary": "五反田駅徒歩3分の回転寿司。駅近地下で、五反田ホール圏からの手軽な軽食。"
  },
  {
    "id": "matsuya-gotanda",
    "legacy_id": 178,
    "name": "松屋 五反田店",
    "area_id": "gotanda",
    "genre": "カレー",
    "time_category": [
      "朝",
      "昼",
      "夜"
    ],
    "hours": "24時間営業",
    "tags": [
      "サク飯",
      "一人OK",
      "朝飯OK",
      "深夜OK"
    ],
    "address": "東京都品川区西五反田1-30-5",
    "lat": 35.6258,
    "lng": 139.7232,
    "default_ai_summary": "五反田駅徒歩2分の牛丼・カレー。24時間営業で、駅前ホール圏の最速補給拠点。"
  },
  {
    "id": "cocoichi-gotanda",
    "legacy_id": 179,
    "name": "カレーハウスCoCo壱番屋 五反田店",
    "area_id": "gotanda",
    "genre": "カレー",
    "time_category": [
      "昼",
      "夜"
    ],
    "hours": "11:00〜22:00（L.O.）",
    "tags": [
      "サク飯",
      "一人OK"
    ],
    "address": "東京都品川区西五反田2-1-5",
    "lat": 35.626,
    "lng": 139.7235,
    "default_ai_summary": "五反田駅徒歩2分のカレーチェーン。ジャラン五反田店からの戻りやすいカレー候補。"
  },
  {
    "id": "yoshinoya-gotanda",
    "legacy_id": 180,
    "name": "吉野家 五反田店",
    "area_id": "gotanda",
    "genre": "丼もの",
    "time_category": [
      "朝",
      "昼",
      "夜"
    ],
    "hours": "24時間営業",
    "tags": [
      "サク飯",
      "一人OK",
      "朝飯OK",
      "深夜OK"
    ],
    "address": "東京都品川区西五反田1-26-2",
    "lat": 35.6256,
    "lng": 139.723,
    "default_ai_summary": "五反田駅徒歩2分の牛丼。24時間営業で、ビジネス街の定番サク飯。"
  },
  {
    "id": "nadai-fujisoba-gotanda",
    "legacy_id": 181,
    "name": "名代富士そば 五反田店",
    "area_id": "gotanda",
    "genre": "そば/うどん",
    "time_category": [
      "朝",
      "昼",
      "夜"
    ],
    "hours": "24時間営業",
    "tags": [
      "サク飯",
      "一人OK",
      "朝飯OK",
      "深夜OK"
    ],
    "address": "東京都品川区西五反田1-28-1",
    "lat": 35.6254,
    "lng": 139.7222,
    "default_ai_summary": "五反田駅徒歩2分の立ち食いそば。24時間営業で、五反田ホール圏の神コスパサク飯。"
  },
  {
    "id": "katsuya-gotanda",
    "legacy_id": 182,
    "name": "かつや 五反田店",
    "area_id": "gotanda",
    "genre": "とんかつ/カツ丼",
    "time_category": [
      "昼",
      "夜"
    ],
    "hours": "10:30〜23:30（L.O. 23:00）",
    "tags": [
      "サク飯",
      "一人OK"
    ],
    "address": "東京都品川区西五反田2-3-1",
    "lat": 35.6262,
    "lng": 139.724,
    "default_ai_summary": "五反田駅徒歩3分のとんかつチェーン。揚げたて定食が手頃で、マーメイド圏の定番飯。"
  },
  {
    "id": "mcdonalds-gotanda",
    "legacy_id": 183,
    "name": "マクドナルド 五反田店",
    "area_id": "gotanda",
    "genre": "ハンバーガー",
    "time_category": [
      "朝",
      "昼",
      "夜"
    ],
    "hours": "24時間営業",
    "tags": [
      "サク飯",
      "一人OK",
      "朝飯OK",
      "深夜OK"
    ],
    "address": "東京都品川区西五反田1-20-3",
    "lat": 35.625,
    "lng": 139.722,
    "default_ai_summary": "五反田駅徒歩2分のファストフード。24時間営業で、駅前ホール圏の最速軽食。"
  },
  {
    "id": "yakiniku-like-gotanda",
    "legacy_id": 184,
    "name": "焼肉ライク 五反田店",
    "area_id": "gotanda",
    "genre": "焼肉",
    "time_category": [
      "昼",
      "夜"
    ],
    "hours": "10:00〜23:00（L.O. 22:30）",
    "tags": [
      "サク飯",
      "ガッツリ",
      "一人OK"
    ],
    "address": "東京都品川区西五反田2-5-2",
    "lat": 35.6265,
    "lng": 139.7238,
    "default_ai_summary": "五反田駅徒歩3分の一人焼肉専門。無煙ロースターで気軽にスタミナチャージできる。"
  },
  {
    "id": "ichiran-gotanda",
    "legacy_id": 185,
    "name": "一蘭 五反田店",
    "area_id": "gotanda",
    "genre": "ラーメン",
    "time_category": [
      "昼",
      "夜"
    ],
    "hours": "24時間営業",
    "tags": [
      "サク飯",
      "ガッツリ",
      "一人OK",
      "深夜OK"
    ],
    "address": "東京都品川区西五反田1-13-7",
    "lat": 35.6248,
    "lng": 139.7218,
    "default_ai_summary": "五反田駅徒歩3分のとんこつラーメン。個室ブースで集中して食べられる定番一杯。"
  },
  {
    "id": "tenya-gotanda",
    "legacy_id": 186,
    "name": "天丼てんや 五反田店",
    "area_id": "gotanda",
    "genre": "丼もの",
    "time_category": [
      "昼",
      "夜"
    ],
    "hours": "11:00〜22:00（L.O. 閉店30分前）",
    "tags": [
      "サク飯",
      "一人OK"
    ],
    "address": "東京都品川区西五反田1-31-2",
    "lat": 35.6259,
    "lng": 139.7226,
    "default_ai_summary": "五反田駅徒歩2分の天丼チェーン。揚げたて天丼が手軽で、五反田ホール圏のサク飯候補。"
  },
  {
    "id": "nakau-gotanda",
    "legacy_id": 187,
    "name": "なか卯 五反田店",
    "area_id": "gotanda",
    "genre": "丼もの",
    "time_category": [
      "朝",
      "昼",
      "夜"
    ],
    "hours": "4:00〜翌3:00（3:00〜4:00休業）",
    "tags": [
      "サク飯",
      "一人OK",
      "朝飯OK",
      "深夜OK"
    ],
    "address": "東京都品川区西五反田2-2-1",
    "lat": 35.6261,
    "lng": 139.7236,
    "default_ai_summary": "五反田駅徒歩2分の牛丼。早朝4時開店で、ジャラン圏の手軽な丼候補。"
  },
  {
    "id": "komoro-soba-gotanda",
    "legacy_id": 188,
    "name": "小諸そば 五反田店",
    "area_id": "gotanda",
    "genre": "そば/うどん",
    "time_category": [
      "朝",
      "昼",
      "夜"
    ],
    "hours": "平日7:00〜22:00、土日祝9:00〜18:00",
    "tags": [
      "サク飯",
      "一人OK",
      "朝飯OK"
    ],
    "address": "東京都品川区西五反田1-22-5",
    "lat": 35.6253,
    "lng": 139.7224,
    "default_ai_summary": "五反田駅徒歩2分の立ち食いそば。早朝7時開店で、五反田ホール圏の神コスパサク飯。"
  },
  {
    "id": "yoshinoya-takadanobaba",
    "legacy_id": 189,
    "name": "吉野家 高田馬場店",
    "area_id": "takadanobaba",
    "genre": "丼もの",
    "time_category": [
      "朝",
      "昼",
      "夜"
    ],
    "hours": "24時間営業",
    "tags": [
      "サク飯",
      "一人OK",
      "朝飯OK",
      "深夜OK"
    ],
    "address": "東京都新宿区高田馬場1-28-4",
    "lat": 35.7128,
    "lng": 139.7032,
    "default_ai_summary": "高田馬場駅徒歩1分の牛丼。24時間営業で、エスパス・国際センター圏の定番サク飯。"
  },
  {
    "id": "sushiro-takadanobaba-bigbox",
    "legacy_id": 190,
    "name": "スシロー BIGBOX高田馬場店",
    "area_id": "takadanobaba",
    "genre": "回転寿司",
    "time_category": [
      "昼",
      "夜"
    ],
    "hours": "平日11:00〜23:00、土日祝10:30〜23:00（L.O. 閉店30分前）",
    "tags": [
      "サク飯",
      "一人OK"
    ],
    "address": "東京都新宿区高田馬場1-35-3 BIGBOX高田馬場 B1",
    "lat": 35.7132,
    "lng": 139.7028,
    "default_ai_summary": "高田馬場駅徒歩1分の回転寿司。駅直結動線で、高田馬場ホール圏からの最速軽食。"
  },
  {
    "id": "matsuya-takadanobaba",
    "legacy_id": 191,
    "name": "松屋 高田馬場店",
    "area_id": "takadanobaba",
    "genre": "カレー",
    "time_category": [
      "朝",
      "昼",
      "夜"
    ],
    "hours": "24時間営業",
    "tags": [
      "サク飯",
      "一人OK",
      "朝飯OK",
      "深夜OK"
    ],
    "address": "東京都新宿区高田馬場1-32-2",
    "lat": 35.713,
    "lng": 139.7035,
    "default_ai_summary": "高田馬場駅徒歩2分の牛丼・カレー。24時間営業で、早稲田口ホール圏の最速補給拠点。"
  },
  {
    "id": "cocoichi-takadanobaba",
    "legacy_id": 192,
    "name": "カレーハウスCoCo壱番屋 高田馬場店",
    "area_id": "takadanobaba",
    "genre": "カレー",
    "time_category": [
      "昼",
      "夜"
    ],
    "hours": "11:00〜22:00（L.O.）",
    "tags": [
      "サク飯",
      "一人OK"
    ],
    "address": "東京都新宿区高田馬場2-1-5",
    "lat": 35.7122,
    "lng": 139.7042,
    "default_ai_summary": "高田馬場駅徒歩2分のカレーチェーン。学生街で手軽に済ませられるカレー候補。"
  },
  {
    "id": "hanamaru-udon-takadanobaba",
    "legacy_id": 193,
    "name": "はなまるうどん 高田馬場店",
    "area_id": "takadanobaba",
    "genre": "そば/うどん",
    "time_category": [
      "朝",
      "昼",
      "夜"
    ],
    "hours": "9:00〜22:30（L.O. 閉店30分前）",
    "tags": [
      "サク飯",
      "一人OK",
      "朝飯OK"
    ],
    "address": "東京都新宿区高田馬場1-26-5",
    "lat": 35.7126,
    "lng": 139.703,
    "default_ai_summary": "高田馬場駅徒歩1分の讃岐うどん。セルフ形式で最速提供、エスパス圏の定番サク飯。"
  },
  {
    "id": "nadai-fujisoba-takadanobaba",
    "legacy_id": 194,
    "name": "名代富士そば 高田馬場店",
    "area_id": "takadanobaba",
    "genre": "そば/うどん",
    "time_category": [
      "朝",
      "昼",
      "夜"
    ],
    "hours": "24時間営業",
    "tags": [
      "サク飯",
      "一人OK",
      "朝飯OK",
      "深夜OK"
    ],
    "address": "東京都新宿区高田馬場1-30-1",
    "lat": 35.7129,
    "lng": 139.7038,
    "default_ai_summary": "高田馬場駅徒歩2分の立ち食いそば。24時間営業で、高田馬場ホール圏の神コスパサク飯。"
  },
  {
    "id": "katsuya-takadanobaba",
    "legacy_id": 195,
    "name": "かつや 高田馬場店",
    "area_id": "takadanobaba",
    "genre": "とんかつ/カツ丼",
    "time_category": [
      "昼",
      "夜"
    ],
    "hours": "10:30〜23:30（L.O. 23:00）",
    "tags": [
      "サク飯",
      "一人OK"
    ],
    "address": "東京都新宿区高田馬場2-3-1",
    "lat": 35.712,
    "lng": 139.7048,
    "default_ai_summary": "高田馬場駅徒歩3分のとんかつチェーン。揚げたて定食が手頃で、国際センター圏の定番飯。"
  },
  {
    "id": "mcdonalds-takadanobaba",
    "legacy_id": 196,
    "name": "マクドナルド 高田馬場店",
    "area_id": "takadanobaba",
    "genre": "ハンバーガー",
    "time_category": [
      "朝",
      "昼",
      "夜"
    ],
    "hours": "24時間営業",
    "tags": [
      "サク飯",
      "一人OK",
      "朝飯OK",
      "深夜OK"
    ],
    "address": "東京都新宿区高田馬場1-27-2",
    "lat": 35.7127,
    "lng": 139.7025,
    "default_ai_summary": "高田馬場駅徒歩1分のファストフード。24時間営業で、駅前ホール圏の最速軽食。"
  },
  {
    "id": "yakiniku-like-takadanobaba",
    "legacy_id": 197,
    "name": "焼肉ライク 高田馬場店",
    "area_id": "takadanobaba",
    "genre": "焼肉",
    "time_category": [
      "昼",
      "夜"
    ],
    "hours": "10:00〜23:00（L.O. 22:30）",
    "tags": [
      "サク飯",
      "ガッツリ",
      "一人OK"
    ],
    "address": "東京都新宿区高田馬場2-5-2",
    "lat": 35.7118,
    "lng": 139.705,
    "default_ai_summary": "高田馬場駅徒歩3分の一人焼肉専門。無煙ロースターで気軽にスタミナチャージできる。"
  },
  {
    "id": "menya-takadanobaba",
    "legacy_id": 198,
    "name": "麺屋武蔵 高田馬場店",
    "area_id": "takadanobaba",
    "genre": "ラーメン",
    "time_category": [
      "昼",
      "夜"
    ],
    "hours": "11:00〜23:00（L.O. 22:30）",
    "tags": [
      "サク飯",
      "ガッツリ",
      "一人OK"
    ],
    "address": "東京都新宿区高田馬場2-8-1",
    "lat": 35.7115,
    "lng": 139.7045,
    "default_ai_summary": "高田馬場駅徒歩3分の家系ラーメン。濃厚スープで、学生街の人気ラーメン店。"
  },
  {
    "id": "tenya-takadanobaba",
    "legacy_id": 199,
    "name": "天丼てんや 高田馬場店",
    "area_id": "takadanobaba",
    "genre": "丼もの",
    "time_category": [
      "昼",
      "夜"
    ],
    "hours": "11:00〜22:00（L.O. 閉店30分前）",
    "tags": [
      "サク飯",
      "一人OK"
    ],
    "address": "東京都新宿区高田馬場1-33-1",
    "lat": 35.7131,
    "lng": 139.7033,
    "default_ai_summary": "高田馬場駅徒歩2分の天丼チェーン。揚げたて天丼が手軽で、高田馬場ホール圏のサク飯候補。"
  },
  {
    "id": "nakau-takadanobaba",
    "legacy_id": 200,
    "name": "なか卯 高田馬場店",
    "area_id": "takadanobaba",
    "genre": "丼もの",
    "time_category": [
      "朝",
      "昼",
      "夜"
    ],
    "hours": "4:00〜翌3:00（3:00〜4:00休業）",
    "tags": [
      "サク飯",
      "一人OK",
      "朝飯OK",
      "深夜OK"
    ],
    "address": "東京都新宿区高田馬場1-29-3",
    "lat": 35.7125,
    "lng": 139.7036,
    "default_ai_summary": "高田馬場駅徒歩2分の牛丼。早朝4時開店で、エスパス圏の手軽な丼候補。"
  },
  {
    "id": "komoro-soba-takadanobaba",
    "legacy_id": 201,
    "name": "小諸そば 高田馬場店",
    "area_id": "takadanobaba",
    "genre": "そば/うどん",
    "time_category": [
      "朝",
      "昼",
      "夜"
    ],
    "hours": "平日7:00〜22:00、土日祝9:00〜18:00",
    "tags": [
      "サク飯",
      "一人OK",
      "朝飯OK"
    ],
    "address": "東京都新宿区高田馬場1-31-5",
    "lat": 35.7123,
    "lng": 139.704,
    "default_ai_summary": "高田馬場駅徒歩2分の立ち食いそば。早朝7時開店で、国際センター圏の神コスパサク飯。"
  },
  {
    "id": "sukiya-takadanobaba",
    "legacy_id": 202,
    "name": "すき家 高田馬場1丁目店",
    "area_id": "takadanobaba",
    "genre": "丼もの",
    "time_category": [
      "朝",
      "昼",
      "夜"
    ],
    "hours": "4:00〜翌3:00（3:00〜4:00休業）",
    "tags": [
      "サク飯",
      "一人OK",
      "朝飯OK",
      "深夜OK"
    ],
    "address": "東京都新宿区高田馬場1-22-1",
    "lat": 35.7135,
    "lng": 139.7022,
    "default_ai_summary": "高田馬場駅徒歩2分の牛丼。早朝4時開店で、高田馬場ホール圏の最速丼候補。"
  },
  {
    "id": "yoshinoya-nakano",
    "legacy_id": 203,
    "name": "吉野家 中野駅前店",
    "area_id": "nakano",
    "genre": "丼もの",
    "time_category": [
      "朝",
      "昼",
      "夜"
    ],
    "hours": "24時間営業",
    "tags": [
      "サク飯",
      "一人OK",
      "朝飯OK",
      "深夜OK"
    ],
    "address": "東京都中野区中野5-58-1",
    "lat": 35.707,
    "lng": 139.6662,
    "default_ai_summary": "中野駅北口徒歩2分の牛丼。24時間営業で、グランパ・国際センター圏の定番サク飯。"
  },
  {
    "id": "hanamaru-udon-nakano",
    "legacy_id": 204,
    "name": "はなまるうどん 中野通り店",
    "area_id": "nakano",
    "genre": "そば/うどん",
    "time_category": [
      "朝",
      "昼",
      "夜"
    ],
    "hours": "7:30〜23:00（L.O. 22:30）",
    "tags": [
      "サク飯",
      "一人OK",
      "朝飯OK"
    ],
    "address": "東京都中野区中野5-67-6 ビジネスハイツ中野B1F",
    "lat": 35.7078,
    "lng": 139.6668,
    "default_ai_summary": "中野駅北口徒歩3分の讃岐うどん。早朝7時半開店で、グランパ圏の定番サク飯。"
  },
  {
    "id": "matsuya-nakano",
    "legacy_id": 205,
    "name": "松屋 中野店",
    "area_id": "nakano",
    "genre": "カレー",
    "time_category": [
      "朝",
      "昼",
      "夜"
    ],
    "hours": "24時間営業",
    "tags": [
      "サク飯",
      "一人OK",
      "朝飯OK",
      "深夜OK"
    ],
    "address": "東京都中野区中野5-59-2",
    "lat": 35.7068,
    "lng": 139.6658,
    "default_ai_summary": "中野駅北口徒歩2分の牛丼・カレー。24時間営業で、中野北口ホール圏の最速補給拠点。"
  },
  {
    "id": "cocoichi-nakano",
    "legacy_id": 206,
    "name": "カレーハウスCoCo壱番屋 中野店",
    "area_id": "nakano",
    "genre": "カレー",
    "time_category": [
      "昼",
      "夜"
    ],
    "hours": "11:00〜22:00（L.O.）",
    "tags": [
      "サク飯",
      "一人OK"
    ],
    "address": "東京都中野区中野5-62-1",
    "lat": 35.7074,
    "lng": 139.666,
    "default_ai_summary": "中野駅北口徒歩2分のカレーチェーン。中野の飲食激戦区で手軽に済ませられるカレー候補。"
  },
  {
    "id": "nadai-fujisoba-nakano",
    "legacy_id": 207,
    "name": "名代富士そば 中野店",
    "area_id": "nakano",
    "genre": "そば/うどん",
    "time_category": [
      "朝",
      "昼",
      "夜"
    ],
    "hours": "24時間営業",
    "tags": [
      "サク飯",
      "一人OK",
      "朝飯OK",
      "深夜OK"
    ],
    "address": "東京都中野区中野5-56-3",
    "lat": 35.7066,
    "lng": 139.6655,
    "default_ai_summary": "中野駅北口徒歩2分の立ち食いそば。24時間営業で、中野ホール圏の神コスパサク飯。"
  },
  {
    "id": "katsuya-nakano",
    "legacy_id": 208,
    "name": "かつや 中野店",
    "area_id": "nakano",
    "genre": "とんかつ/カツ丼",
    "time_category": [
      "昼",
      "夜"
    ],
    "hours": "10:30〜23:30（L.O. 23:00）",
    "tags": [
      "サク飯",
      "一人OK"
    ],
    "address": "東京都中野区中野5-63-2",
    "lat": 35.7076,
    "lng": 139.6664,
    "default_ai_summary": "中野駅北口徒歩3分のとんかつチェーン。揚げたて定食が手頃で、国際センター圏の定番飯。"
  },
  {
    "id": "mcdonalds-nakano",
    "legacy_id": 209,
    "name": "マクドナルド 中野駅前店",
    "area_id": "nakano",
    "genre": "ハンバーガー",
    "time_category": [
      "朝",
      "昼",
      "夜"
    ],
    "hours": "24時間営業",
    "tags": [
      "サク飯",
      "一人OK",
      "朝飯OK",
      "深夜OK"
    ],
    "address": "東京都中野区中野5-57-1",
    "lat": 35.7069,
    "lng": 139.6661,
    "default_ai_summary": "中野駅北口徒歩1分のファストフード。24時間営業で、駅前ホール圏の最速軽食。"
  },
  {
    "id": "sushiro-nakano",
    "legacy_id": 210,
    "name": "スシロー 中野坂上店",
    "area_id": "nakano",
    "genre": "回転寿司",
    "time_category": [
      "昼",
      "夜"
    ],
    "hours": "平日11:00〜23:00、土日祝10:30〜23:00（L.O. 閉店30分前）",
    "tags": [
      "サク飯",
      "一人OK"
    ],
    "address": "東京都中野区中央4-1-1",
    "lat": 35.7085,
    "lng": 139.6685,
    "default_ai_summary": "中野坂上駅徒歩5分の回転寿司。中野北口ホール圏から徒歩圏内の手軽な軽食。"
  },
  {
    "id": "yakiniku-like-nakano",
    "legacy_id": 211,
    "name": "焼肉ライク 中野店",
    "area_id": "nakano",
    "genre": "焼肉",
    "time_category": [
      "昼",
      "夜"
    ],
    "hours": "10:00〜23:00（L.O. 22:30）",
    "tags": [
      "サク飯",
      "ガッツリ",
      "一人OK"
    ],
    "address": "東京都中野区中野5-55-2",
    "lat": 35.7064,
    "lng": 139.6652,
    "default_ai_summary": "中野駅北口徒歩3分の一人焼肉専門。無煙ロースターで気軽にスタミナチャージできる。"
  },
  {
    "id": "menya-nakano",
    "legacy_id": 212,
    "name": "中野 麺屋武蔵 中野本店",
    "area_id": "nakano",
    "genre": "ラーメン",
    "time_category": [
      "昼",
      "夜"
    ],
    "hours": "11:00〜23:00（L.O. 22:30）",
    "tags": [
      "サク飯",
      "ガッツリ",
      "一人OK"
    ],
    "address": "東京都中野区中野5-52-1",
    "lat": 35.7062,
    "lng": 139.6648,
    "default_ai_summary": "中野駅北口徒歩3分の家系ラーメン。中野のラーメン激戦区を代表する定番一杯。"
  },
  {
    "id": "tenya-nakano",
    "legacy_id": 213,
    "name": "天丼てんや 中野店",
    "area_id": "nakano",
    "genre": "丼もの",
    "time_category": [
      "昼",
      "夜"
    ],
    "hours": "11:00〜22:00（L.O. 閉店30分前）",
    "tags": [
      "サク飯",
      "一人OK"
    ],
    "address": "東京都中野区中野5-60-5",
    "lat": 35.7071,
    "lng": 139.6666,
    "default_ai_summary": "中野駅北口徒歩2分の天丼チェーン。揚げたて天丼が手軽で、グランパ圏のサク飯候補。"
  },
  {
    "id": "nakau-nakano",
    "legacy_id": 214,
    "name": "なか卯 中野店",
    "area_id": "nakano",
    "genre": "丼もの",
    "time_category": [
      "朝",
      "昼",
      "夜"
    ],
    "hours": "4:00〜翌3:00（3:00〜4:00休業）",
    "tags": [
      "サク飯",
      "一人OK",
      "朝飯OK",
      "深夜OK"
    ],
    "address": "東京都中野区中野5-58-5",
    "lat": 35.7072,
    "lng": 139.6656,
    "default_ai_summary": "中野駅北口徒歩2分の牛丼。早朝4時開店で、中野ホール圏の手軽な丼候補。"
  },
  {
    "id": "sukiya-nakano",
    "legacy_id": 215,
    "name": "すき家 新中野駅前店",
    "area_id": "nakano",
    "genre": "丼もの",
    "time_category": [
      "朝",
      "昼",
      "夜"
    ],
    "hours": "4:00〜翌3:00（3:00〜4:00休業）",
    "tags": [
      "サク飯",
      "一人OK",
      "朝飯OK",
      "深夜OK"
    ],
    "address": "東京都中野区本町4-30-26 成瀬ビル1F",
    "lat": 35.7088,
    "lng": 139.669,
    "default_ai_summary": "新中野駅徒歩1分の牛丼。早朝4時開店で、中野エリア南側の最速丼候補。"
  },
  {
    "id": "yoshinoya-kichijoji",
    "legacy_id": 216,
    "name": "吉野家 吉祥寺駅前店",
    "area_id": "kichijoji",
    "genre": "丼もの",
    "time_category": [
      "朝",
      "昼",
      "夜"
    ],
    "hours": "24時間営業",
    "tags": [
      "サク飯",
      "一人OK",
      "朝飯OK",
      "深夜OK"
    ],
    "address": "東京都武蔵野市吉祥寺本町1-22-1",
    "lat": 35.7032,
    "lng": 139.5795,
    "default_ai_summary": "吉祥寺駅北口徒歩1分の牛丼。24時間営業で、メッセ本館圏の定番サク飯。"
  },
  {
    "id": "hanamaru-udon-kichijoji-minamiguchi",
    "legacy_id": 217,
    "name": "はなまるうどん 吉祥寺南口店",
    "area_id": "kichijoji",
    "genre": "そば/うどん",
    "time_category": [
      "朝",
      "昼",
      "夜"
    ],
    "hours": "9:00〜22:30（L.O. 閉店30分前）",
    "tags": [
      "サク飯",
      "一人OK",
      "朝飯OK"
    ],
    "address": "東京都武蔵野市吉祥寺南町1-1-4 三河屋ビルB1F",
    "lat": 35.7016,
    "lng": 139.5782,
    "default_ai_summary": "吉祥寺駅南口徒歩1分の讃岐うどん。セルフ形式で最速提供、メッセ新館圏の定番サク飯。"
  },
  {
    "id": "matsuya-kichijoji",
    "legacy_id": 218,
    "name": "松屋 吉祥寺店",
    "area_id": "kichijoji",
    "genre": "カレー",
    "time_category": [
      "朝",
      "昼",
      "夜"
    ],
    "hours": "24時間営業",
    "tags": [
      "サク飯",
      "一人OK",
      "朝飯OK",
      "深夜OK"
    ],
    "address": "東京都武蔵野市吉祥寺本町1-20-3",
    "lat": 35.703,
    "lng": 139.579,
    "default_ai_summary": "吉祥寺駅北口徒歩2分の牛丼・カレー。24時間営業で、メッセ本館圏の最速補給拠点。"
  },
  {
    "id": "cocoichi-kichijoji",
    "legacy_id": 219,
    "name": "カレーハウスCoCo壱番屋 吉祥寺店",
    "area_id": "kichijoji",
    "genre": "カレー",
    "time_category": [
      "昼",
      "夜"
    ],
    "hours": "11:00〜22:00（L.O.）",
    "tags": [
      "サク飯",
      "一人OK"
    ],
    "address": "東京都武蔵野市吉祥寺本町1-18-5",
    "lat": 35.7028,
    "lng": 139.5788,
    "default_ai_summary": "吉祥寺駅北口徒歩2分のカレーチェーン。サンロード方面への動線でも使いやすいカレー候補。"
  },