[
  {
    "id": "honda-akihabara",
    "legacy_id": 1,
    "name": "麺処 ほん田 秋葉原本店",
    "area_id": "akihabara",
    "genre": "ラーメン",
    "time_category": ["昼", "夜"],
    "hours": "11:30〜15:00、18:00〜21:00",
    "tags": ["ガッツリ", "一人OK"],
    "address": "東京都千代田区外神田3-7-2",
    "lat": 35.7016,
    "lng": 139.7704,
    "default_ai_summary": "都内屈指の有名店。並びは激しいが、大勝ちした日の最高のご褒美麺として完璧なクオリティ。"
  },
  {
    "id": "aoshima-shokudo-akihabara",
    "legacy_id": 2,
    "name": "青島食堂 秋葉原店",
    "area_id": "akihabara",
    "genre": "ラーメン",
    "time_category": ["昼", "夜"],
    "hours": "11:00〜21:00",
    "tags": ["ガッツリ", "一人OK"],
    "address": "東京都千代田区神田須田町2-12-5",
    "lat": 35.6948,
    "lng": 139.7720,
    "default_ai_summary": "新潟・長岡発祥の生姜醤油ラーメンの名店。あっさり系ながら旨味が濃く、軍資金を使い切った後のリセット飯としても重宝する。"
  },
  {
    "id": "ramen-waizu-akihabara",
    "legacy_id": 3,
    "name": "秋葉原 ラーメン わいず",
    "area_id": "akihabara",
    "genre": "ラーメン",
    "time_category": ["昼", "夜"],
    "hours": "10:30〜22:00",
    "tags": ["サク飯", "ガッツリ", "一人OK"],
    "address": "東京都千代田区外神田3-2-13",
    "lat": 35.7000,
    "lng": 139.7707,
    "default_ai_summary": "濃厚でガツンとくる家系ラーメン。終日営業しているため、どの時間帯の休憩でも立ち寄りやすい。"
  },
  {
    "id": "hakata-furyu-akihabara",
    "legacy_id": 4,
    "name": "博多風龍 秋葉原総本店",
    "area_id": "akihabara",
    "genre": "ラーメン",
    "time_category": ["昼", "夜"],
    "hours": "11:00〜翌2:00",
    "tags": ["サク飯", "ガッツリ", "一人OK", "深夜OK"],
    "address": "東京都千代田区外神田1-10-11",
    "lat": 35.6985,
    "lng": 139.7716,
    "default_ai_summary": "電気街口側にある、爆速提供＋替玉2玉無料の定番ラーメン店。一人サク飯にも勝った日のご褒美にも使いやすい。"
  },
  {
    "id": "curry-wa-nomimono-akihabara",
    "legacy_id": 5,
    "name": "カレーは飲み物。秋葉原店",
    "area_id": "akihabara",
    "genre": "カレー",
    "time_category": ["昼", "夜"],
    "hours": "11:00〜16:00、17:30〜21:30",
    "tags": ["サク飯", "ガッツリ", "一人OK"],
    "address": "東京都千代田区外神田3-10-5",
    "lat": 35.7016,
    "lng": 139.7720,
    "default_ai_summary": "トッピングが3つ選べる濃厚カレー。提供スピードが早く、ガッツリ食べてすぐホールに戻りたい時に最適。"
  },
  {
    "id": "curry-no-shimin-alba-akihabara",
    "legacy_id": 6,
    "name": "カレーの市民 アルバ 秋葉原本店",
    "area_id": "akihabara",
    "genre": "カレー",
    "time_category": ["昼", "夜"],
    "hours": "11:00〜21:30",
    "tags": ["サク飯", "ガッツリ", "一人OK"],
    "address": "東京都千代田区外神田1-6-7",
    "lat": 35.6985,
    "lng": 139.7708,
    "default_ai_summary": "秋葉原駅電気街口の裏手、サボニウス広場近く。濃厚な金沢カレーで、サクッとエネルギー補給をするのに便利。"
  },
  {
    "id": "karigari-akihabara",
    "legacy_id": 7,
    "name": "カリガリ 秋葉原",
    "area_id": "akihabara",
    "genre": "カレー",
    "time_category": ["昼", "夜"],
    "hours": "11:30〜23:00",
    "tags": ["一人OK", "深夜OK"],
    "address": "東京都千代田区外神田6-14-2",
    "lat": 35.7044,
    "lng": 139.7702,
    "default_ai_summary": "神田カレーグランプリ優勝店。お洒落な空間ながら、スパイスの効いたカレーで脳をリフレッシュできる。"
  },
  {
    "id": "marugo",
    "legacy_id": 8,
    "name": "丸五",
    "area_id": "akihabara",
    "genre": "とんかつ/カツ丼",
    "time_category": ["昼", "夜"],
    "hours": "11:30〜14:00、17:00〜20:00",
    "tags": ["ガッツリ", "一人OK"],
    "address": "東京都千代田区外神田1-8-14",
    "lat": 35.6993,
    "lng": 139.7716,
    "default_ai_summary": "行列必至のミシュラン掲載店。「勝負に勝つ」ゲン担ぎや、大勝利した日の贅沢ディナーにふさわしい名店。"
  },
  {
    "id": "tonkatsu-aoki-akihabara",
    "legacy_id": 9,
    "name": "とんかつ 檍 秋葉原店",
    "area_id": "akihabara",
    "genre": "とんかつ/カツ丼",
    "time_category": ["昼", "夜"],
    "hours": "11:00〜15:00、17:00〜21:00",
    "tags": ["ガッツリ", "一人OK"],
    "address": "東京都千代田区外神田3-6-4",
    "lat": 35.7010,
    "lng": 139.7706,
    "default_ai_summary": "レア気味に揚げられた極厚のSPF豚が絶品。軍資金に余裕がある時の贅沢飯としておすすめ。"
  },
  {
    "id": "nadai-fujisoba-akihabara-denkigai",
    "legacy_id": 10,
    "name": "名代 富士そば 秋葉原電気街店",
    "area_id": "akihabara",
    "genre": "そば/うどん",
    "time_category": ["朝", "昼", "夜"],
    "hours": "24時間営業",
    "tags": ["サク飯", "一人OK", "深夜OK", "朝飯OK"],
    "address": "東京都千代田区外神田1-15-18",
    "lat": 35.6986,
    "lng": 139.7727,
    "default_ai_summary": "秋葉原駅電気街口の目の前。24時間営業のため、抽選前の朝食から閉店後の夜食までいつでも使える絶対的安心感。"
  },
  {
    "id": "komoro-soba-akihabara",
    "legacy_id": 11,
    "name": "小諸そば 秋葉原店",
    "area_id": "akihabara",
    "genre": "そば/うどん",
    "time_category": ["朝", "昼", "夜"],
    "hours": "6:30〜22:00",
    "tags": ["サク飯", "一人OK", "朝飯OK"],
    "address": "東京都千代田区外神田1-8-13",
    "lat": 35.6993,
    "lng": 139.7714,
    "default_ai_summary": "安くて早くて旨い立ち食いそば。並びから実食まで10分以内で完結するため、短時間の昼休憩に重宝する。"
  },
  {
    "id": "sutadonya-akihabara",
    "legacy_id": 12,
    "name": "すた丼屋 秋葉原店",
    "area_id": "akihabara",
    "genre": "丼もの",
    "time_category": ["昼", "夜"],
    "hours": "11:00〜23:00",
    "tags": ["サク飯", "ガッツリ", "一人OK", "深夜OK"],
    "address": "東京都千代田区外神田4-4-3",
    "lat": 35.7026,
    "lng": 139.7720,
    "default_ai_summary": "ジャンクでニンニクの効いた伝説のすた丼。圧倒的スピード提供と強烈な塩分・総カロリーで、疲れた脳に活力を注入できる。"
  },
  {
    "id": "roast-beef-ohno-akihabara",
    "legacy_id": 13,
    "name": "ローストビーフ大野 秋葉原店",
    "area_id": "akihabara",
    "genre": "丼もの",
    "time_category": ["昼", "夜"],
    "hours": "11:00〜22:00",
    "tags": ["ガッツリ", "一人OK"],
    "address": "東京都千代田区外神田1-10-5",
    "lat": 35.6991,
    "lng": 139.7720,
    "default_ai_summary": "秋葉原駅近くの山盛りローストビーフ丼店。終日並びが激しいため、時間に余裕がある時の贅沢向け。"
  },
  {
    "id": "niku-no-mansei-akihabara",
    "legacy_id": 14,
    "name": "肉の万世 秋葉原本店",
    "area_id": "akihabara",
    "genre": "丼もの",
    "time_category": ["昼", "夜"],
    "hours": "11:00〜22:00",
    "tags": ["ガッツリ"],
    "address": "東京都千代田区神田須田町2-21",
    "lat": 35.6961,
    "lng": 139.7715,
    "default_ai_summary": "秋葉原の肉の聖地。ボリューム満点の万かつサンドのテイクアウトや、パチスロ大勝ち時の「万枚祝い」のディナーに最適。"
  },
  {
    "id": "okamuraya-akihabara",
    "legacy_id": 15,
    "name": "岡むら屋 秋葉原店",
    "area_id": "akihabara",
    "genre": "丼もの",
    "time_category": ["昼", "夜"],
    "hours": "10:00〜22:30",
    "tags": ["サク飯", "ガッツリ", "一人OK"],
    "address": "東京都千代田区外神田3-14-3",
    "lat": 35.7020,
    "lng": 139.7707,
    "default_ai_summary": "じっくり煮込まれた大ぶりの角切り肉が乗った「肉めし」が特徴。提供が早く、ガッツリ肉をかき込みたい時に重宝する。"
  },
  {
    "id": "mcdonalds-bic-camera-akiba",
    "legacy_id": 16,
    "name": "マクドナルド ビックカメラAKIBA店",
    "area_id": "akihabara",
    "genre": "ハンバーガー",
    "time_category": ["朝", "昼", "夜"],
    "hours": "7:00〜23:00",
    "tags": ["サク飯", "一人OK", "朝飯OK", "深夜OK"],
    "address": "東京都千代田区外神田1-15-4",
    "lat": 35.6985,
    "lng": 139.7729,
    "default_ai_summary": "ビックカメラAKIBA 1F、中央通り沿いの定番。朝マックから深夜まで使えて、短時間休憩でも待ち時間ゼロでサクッと済ませられる。"
  },
  {
    "id": "burger-king-akihabara-showadori",
    "legacy_id": 17,
    "name": "バーガーキング 秋葉原昭和通り店",
    "area_id": "akihabara",
    "genre": "ハンバーガー",
    "time_category": ["昼", "夜"],
    "hours": "10:00〜23:00",
    "tags": ["ガッツリ", "一人OK", "深夜OK"],
    "address": "東京都千代田区神田佐久間町1-14-1",
    "lat": 35.6989,
    "lng": 139.7747,
    "default_ai_summary": "秋葉原駅東側・昭和通り沿いのバーガーキング。直火焼きワッパーで肉欲をガッツリ満たせる、勝った日の脂質チャージ枠。"
  },
  {
    "id": "carls-jr-akihabara",
    "legacy_id": 18,
    "name": "Carl's Jr. 秋葉原中央通りレストラン",
    "area_id": "akihabara",
    "genre": "ハンバーガー",
    "time_category": ["昼", "夜"],
    "hours": "11:00〜22:00",
    "tags": ["ガッツリ", "一人OK"],
    "address": "東京都千代田区外神田1-15-16",
    "lat": 35.6989,
    "lng": 139.7724,
    "default_ai_summary": "中央通り沿いのアメリカン分厚いパティ系バーガー。大勝ちした日にガッツリ食べたい気分を満たしてくれる贅沢飯ポジション。"
  },
  {
    "id": "yakiniku-like-akihabara-denkigai",
    "legacy_id": 19,
    "name": "焼肉ライク 秋葉原電気街店",
    "area_id": "akihabara",
    "genre": "焼肉",
    "time_category": ["昼", "夜"],
    "hours": "11:00〜23:30",
    "tags": ["サク飯", "ガッツリ", "一人OK", "深夜OK"],
    "address": "東京都千代田区外神田1-15-2",
    "lat": 35.6985,
    "lng": 139.7727,
    "default_ai_summary": "一人焼肉専門チェーン。タッチパネル注文で待ち時間が短く、勝負前後に一人でスタミナチャージしたい時に最適。"
  },
  {
    "id": "yakiniku-toraji-akihabara",
    "legacy_id": 20,
    "name": "焼肉トラジ 秋葉原店",
    "area_id": "akihabara",
    "genre": "焼肉",
    "time_category": ["昼", "夜"],
    "hours": "11:30〜15:00、17:00〜23:00",
    "tags": ["ガッツリ"],
    "address": "東京都千代田区外神田1-18-19",
    "lat": 35.6993,
    "lng": 139.7735,
    "default_ai_summary": "厚切り高級カルビが看板の人気焼肉店。大勝ちした日のご褒美ディナーや、複数人での祝勝会に向くハレの日枠。"
  },
  {
    "id": "hamazushi-akihabara-denkigai",
    "legacy_id": 21,
    "name": "はま寿司 秋葉原電気街口店",
    "area_id": "akihabara",
    "genre": "回転寿司",
    "time_category": ["昼", "夜"],
    "hours": "11:00〜23:00",
    "tags": ["サク飯", "一人OK"],
    "address": "東京都千代田区外神田1-13-3",
    "lat": 35.6988,
    "lng": 139.7722,
    "default_ai_summary": "コスパ抜群の大手回転寿司チェーン。タッチパネル注文で軍資金を温存しつつ、サクッと食事を済ませたい時に重宝する。"
  },
  {
    "id": "menya-kaijin-shinjuku",
    "legacy_id": 22,
    "name": "麺屋海神 新宿店",
    "area_id": "shinjuku",
    "genre": "ラーメン",
    "time_category": ["昼", "夜"],
    "hours": "11:00〜15:00、16:30〜23:30",
    "tags": ["サク飯", "一人OK"],
    "address": "東京都新宿区新宿3-35-7 さんらくビル2F",
    "lat": 35.6914,
    "lng": 139.7010,
    "default_ai_summary": "東南口徒歩30秒のあら炊き塩ラーメン百名店。あっさり系で休憩後の復帰もしやすい。"
  },
  {
    "id": "manrai-shinjuku",
    "legacy_id": 23,
    "name": "らぁめん 満来",
    "area_id": "shinjuku",
    "genre": "ラーメン",
    "time_category": ["昼", "夜"],
    "hours": "11:00〜23:00",
    "tags": ["ガッツリ", "一人OK", "深夜OK"],
    "address": "東京都新宿区西新宿1-4-10 満来ビル1・2F",
    "lat": 35.6896,
    "lng": 139.6975,
    "default_ai_summary": "西口の60年老舗。巨大チャーシューで勝ち飯・負け飯どちらにも使える定番の一杯。"
  },
  {
    "id": "monsnack-kinokuniya-shinjuku",
    "legacy_id": 24,
    "name": "モンスナック 新宿紀伊國屋ビル店",
    "area_id": "shinjuku",
    "genre": "カレー",
    "time_category": ["昼", "夜"],
    "hours": "11:00〜21:15",
    "tags": ["サク飯", "ガッツリ", "一人OK"],
    "address": "東京都新宿区新宿3-17-7 紀伊國屋ビルB1F",
    "lat": 35.6905,
    "lng": 139.7048,
    "default_ai_summary": "元祖サラサラカレーの老舗。カツカレー1,000円で手軽にガッツリ補給できる。"
  },
  {
    "id": "tonkatsu-niimura-shinjuku",
    "legacy_id": 25,
    "name": "とんかつ にいむら 本店",
    "area_id": "shinjuku",
    "genre": "とんかつ/カツ丼",
    "time_category": ["昼", "夜"],
    "hours": "10:30〜翌6:00",
    "tags": ["ガッツリ", "一人OK", "深夜OK"],
    "address": "東京都新宿区歌舞伎町1-23-10",
    "lat": 35.6941,
    "lng": 139.7018,
    "default_ai_summary": "歌舞伎町の老舗とんかつ。深夜まで営業しており、カツ丼・定食でしっかり休憩できる。"
  },
  {
    "id": "shinshu-soba-honten-shinjuku",
    "legacy_id": 26,
    "name": "信州そば本陣 ルミネエスト新宿店",
    "area_id": "shinjuku",
    "genre": "そば/うどん",
    "time_category": ["朝", "昼", "夜"],
    "hours": "10:00〜22:00",
    "tags": ["サク飯", "一人OK"],
    "address": "東京都新宿区新宿3-38-1 ルミネエスト新宿B1F",
    "lat": 35.6908,
    "lng": 139.7008,
    "default_ai_summary": "駅直結で食券から約10秒提供。最速クラスのサク飯候補。"
  },
  {
    "id": "kanoya-shinjuku-nishiguchi",
    "legacy_id": 27,
    "name": "かのや 新宿西口店",
    "area_id": "shinjuku",
    "genre": "そば/うどん",
    "time_category": ["朝", "昼", "夜"],
    "hours": "7:00〜23:00",
    "tags": ["サク飯", "一人OK", "朝飯OK", "深夜OK"],
    "address": "東京都新宿区西新宿1-16-11",
    "lat": 35.6894,
    "lng": 139.6988,
    "default_ai_summary": "早朝7時開店の立ち食いそば・うどん。長時間稼働の朝食・夜食に頼れる。"
  },
  {
    "id": "tatsuya-shinjuku",
    "legacy_id": 28,
    "name": "たつ屋 新宿店",
    "area_id": "shinjuku",
    "genre": "丼もの",
    "time_category": ["朝", "昼", "夜"],
    "hours": "10:00〜22:00",
    "tags": ["サク飯", "一人OK"],
    "address": "東京都新宿区新宿3-35-2",
    "lat": 35.6913,
    "lng": 139.7013,
    "default_ai_summary": "1969年創業の老舗丼屋。牛・親子・かつ丼がワンコイン前後で、昭和の雰囲気の中サクッと食べられる。"
  },
  {
    "id": "js-burgers-cafe-shinjuku",
    "legacy_id": 29,
    "name": "J.S. BURGERS CAFE 新宿店",
    "area_id": "shinjuku",
    "genre": "ハンバーガー",
    "time_category": ["昼", "夜"],
    "hours": "11:00〜23:00",
    "tags": ["ガッツリ", "一人OK"],
    "address": "東京都新宿区新宿4-1-7 ジャーナルスタンダード新宿店3F",
    "lat": 35.6888,
    "lng": 139.7022,
    "default_ai_summary": "ハンバーガー百名店。新南口徒歩2分、テイクアウト可でホール復帰もしやすい。"
  },
  {
    "id": "yakiniku-like-shinjuku-nishiguchi",
    "legacy_id": 30,
    "name": "焼肉ライク 新宿西口店",
    "area_id": "shinjuku",
    "genre": "焼肉",
    "time_category": ["昼", "夜"],
    "hours": "10:00〜23:00",
    "tags": ["サク飯", "ガッツリ", "一人OK"],
    "address": "東京都新宿区西新宿7-11-17 ブレステン西新宿1F",
    "lat": 35.6938,
    "lng": 139.6962,
    "default_ai_summary": "一人焼肉専門チェーン。3分提供・無煙ロースターで西口エリアのスタミナチャージに最適。"
  },
  {
    "id": "himawari-sushi-shinjuku",
    "legacy_id": 31,
    "name": "ひまわり寿司 新都心店",
    "area_id": "shinjuku",
    "genre": "回転寿司",
    "time_category": ["昼", "夜"],
    "hours": "11:00〜22:00",
    "tags": ["サク飯", "一人OK"],
    "address": "東京都新宿区西新宿1-15-3",
    "lat": 35.6890,
    "lng": 139.6982,
    "default_ai_summary": "西口の老舗回転寿司。ランチ丼600〜750円でコスパ良く、気軽にネタを楽しめる。"
  }
]
