[
  {
    "id": "kinryu-ramen-sennichimae",
    "legacy_id": 403,
    "name": "金龍ラーメン 難波千日前店",
    "area_id": "nanba",
    "genre": "ラーメン",
    "time_category": ["朝", "昼", "夜"],
    "hours": "24時間営業",
    "tags": ["サク飯", "一人OK", "深夜OK"],
    "address": "大阪府大阪市中央区千日前1-9-20",
    "lat": 34.668,
    "lng": 135.5072,
    "default_ai_summary": "難波千日前の象徴的な24時間ラーメン店。朝一前の軽食から閉店後の締めまで、いつでも立ち寄れる難波らしさの定番。",
    "is_kitaichimeshi": true,
    "selection_tags": ["local_famous", "notable_restaurant"],
    "selection_note": "難波千日前の象徴店として遠征ユーザーにも知名度が高い"
  },
  {
    "id": "ichiran-nanba-sakaba",
    "legacy_id": 404,
    "name": "一蘭 なんば酒場通り店",
    "area_id": "nanba",
    "genre": "ラーメン",
    "time_category": ["昼", "夜"],
    "hours": "11:00〜翌5:00",
    "tags": ["ガッツリ", "一人OK", "深夜OK"],
    "address": "大阪府大阪市中央区宗右衛門町7-13",
    "lat": 34.6685,
    "lng": 135.5025,
    "default_ai_summary": "宗右衛門町の一蘭。味に集中できる個室ブースで、勝った日のご褒美麺にも使いやすい。"
  },
  {
    "id": "misen-nanba",
    "legacy_id": 405,
    "name": "天下の中華そば 味仙 なんば店",
    "area_id": "nanba",
    "genre": "ラーメン",
    "time_category": ["昼", "夜"],
    "hours": "11:00〜23:00",
    "tags": ["ガッツリ", "一人OK"],
    "address": "大阪府大阪市中央区千日前1-1-7",
    "lat": 34.6675,
    "lng": 135.5068,
    "default_ai_summary": "名古屋発の台湾ラーメン名店。ガツンとした味で軍資金を使い切った後のリセット飯にも向く。",
    "is_kitaichimeshi": true,
    "selection_tags": ["notable_restaurant", "local_famous"],
    "selection_note": "難波エリアで遠征ユーザーにも名前が挙がる名店"
  },
  {
    "id": "kamukura-nanba",
    "legacy_id": 406,
    "name": "神座 なんば道頓堀店",
    "area_id": "nanba",
    "genre": "ラーメン",
    "time_category": ["昼", "夜"],
    "hours": "11:00〜23:00",
    "tags": ["サク飯", "ガッツリ", "一人OK"],
    "address": "大阪府大阪市中央区難波1-8-17",
    "lat": 34.666,
    "lng": 135.507,
    "default_ai_summary": "道頓堀方面の神座。提供が早く、昼休憩にサクッと戻りたい時に便利なラーメン店。"
  },
  {
    "id": "ramendokoro-nanba",
    "legacy_id": 407,
    "name": "らーめん道場 大阪なんば店",
    "area_id": "nanba",
    "genre": "ラーメン",
    "time_category": ["昼", "夜"],
    "hours": "11:00〜翌3:00",
    "tags": ["サク飯", "一人OK", "深夜OK"],
    "address": "大阪府大阪市中央区難波5-1-60",
    "lat": 34.6635,
    "lng": 135.5015,
    "default_ai_summary": "なんばパークス近くのらーめん道場。深夜帯も営業し、閉店後の締め飯にも使いやすい。"
  },
  {
    "id": "soupcurry-kamui-nanba",
    "legacy_id": 408,
    "name": "スープカレーカムイ なんば店",
    "area_id": "nanba",
    "genre": "カレー",
    "time_category": ["昼", "夜"],
    "hours": "11:30〜22:00",
    "tags": ["ガッツリ", "一人OK"],
    "address": "大阪府大阪市中央区道頓堀1-5-7",
    "lat": 34.669,
    "lng": 135.502,
    "default_ai_summary": "道頓堀のスープカレー専門店。具材たっぷりでエネルギー補給向き、昼休憩のガッツリ飯に最適。"
  },
  {
    "id": "volcano-nanba",
    "legacy_id": 409,
    "name": "ボルケーノ なんば店",
    "area_id": "nanba",
    "genre": "カレー",
    "time_category": ["昼", "夜"],
    "hours": "11:00〜22:00",
    "tags": ["ガッツリ", "一人OK"],
    "address": "大阪府大阪市中央区千日前2-10-9",
    "lat": 34.6678,
    "lng": 135.5075,
    "default_ai_summary": "千日前の欧風カレー専門店。濃厚なルーで満足感が高く、勝った日のご褒美カレーにも向く。"
  },
  {
    "id": "spice-shokudo-nanba",
    "legacy_id": 410,
    "name": "スパイス食堂 なんば店",
    "area_id": "nanba",
    "genre": "カレー",
    "time_category": ["昼", "夜"],
    "hours": "11:30〜21:30",
    "tags": ["サク飯", "一人OK"],
    "address": "大阪府大阪市中央区難波4-10-5",
    "lat": 34.6645,
    "lng": 135.5035,
    "default_ai_summary": "難波四丁目のスパイスカレー店。提供が早く、短い昼休憩でもサクッと食べて戻れる。"
  },
  {
    "id": "tonkatsu-marufuku-nanba",
    "legacy_id": 411,
    "name": "とんかつ丸福 なんば店",
    "area_id": "nanba",
    "genre": "とんかつ/カツ丼",
    "time_category": ["昼", "夜"],
    "hours": "11:00〜21:00",
    "tags": ["ガッツリ", "一人OK"],
    "address": "大阪府大阪市中央区千日前2-3-13",
    "lat": 34.6676,
    "lng": 135.506,
    "default_ai_summary": "千日前のとんかつ老舗丸福。サクサクの衣とジューシーな肉で、昼休憩のガッツリ飯に最適。"
  },
  {
    "id": "katsukichi-nanba",
    "legacy_id": 412,
    "name": "かつ喜 なんば店",
    "area_id": "nanba",
    "genre": "とんかつ/カツ丼",
    "time_category": ["昼", "夜"],
    "hours": "11:00〜22:00",
    "tags": ["サク飯", "一人OK"],
    "address": "大阪府大阪市中央区難波千日前15-17",
    "lat": 34.6665,
    "lng": 135.5055,
    "default_ai_summary": "千日前のかつ喜。とんかつもカツ丼も選べ、短時間の食事休憩に使いやすい。"
  },
  {
    "id": "nadai-katsudon-nanba",
    "legacy_id": 413,
    "name": "なだいかつ丼 なんば店",
    "area_id": "nanba",
    "genre": "とんかつ/カツ丼",
    "time_category": ["昼", "夜"],
    "hours": "11:00〜21:30",
    "tags": ["サク飯", "ガッツリ", "一人OK"],
    "address": "大阪府大阪市中央区道頓堀1-7-21",
    "lat": 34.6688,
    "lng": 135.503,
    "default_ai_summary": "道頓堀のカツ丼専門店。提供が早く、サクッとエネルギー補給してホールに戻りたい時に便利。"
  },
  {
    "id": "matuya-nanba",
    "legacy_id": 414,
    "name": "松屋 難波駅前店",
    "area_id": "nanba",
    "genre": "丼もの",
    "time_category": ["朝", "昼", "夜"],
    "hours": "24時間営業",
    "tags": ["サク飯", "一人OK", "深夜OK"],
    "address": "大阪府大阪市中央区難波5-1-17",
    "lat": 34.664,
    "lng": 135.501,
    "default_ai_summary": "難波駅前の24時間牛丼チェーン。朝一前から閉店後まで、いつでもサクッと飯ができる定番。"
  },
  {
    "id": "yoshinoya-nanba",
    "legacy_id": 415,
    "name": "吉野家 難波店",
    "area_id": "nanba",
    "genre": "丼もの",
    "time_category": ["朝", "昼", "夜"],
    "hours": "24時間営業",
    "tags": ["サク飯", "一人OK", "深夜OK"],
    "address": "大阪府大阪市中央区難波1-17-17",
    "lat": 34.6655,
    "lng": 135.5062,
    "default_ai_summary": "難波の24時間牛丼。提供が爆速で、短い休憩でも確実に食事を済ませられる。"
  },
  {
    "id": "tendon-tenya-nanba",
    "legacy_id": 416,
    "name": "天丼てんや なんば店",
    "area_id": "nanba",
    "genre": "丼もの",
    "time_category": ["昼", "夜"],
    "hours": "10:30〜22:00",
    "tags": ["サク飯", "一人OK"],
    "address": "大阪府大阪市中央区難波3-4-15",
    "lat": 34.665,
    "lng": 135.5045,
    "default_ai_summary": "難波の天丼チェーン。サクッと食べて戻れる丼もので、昼休憩向きの定番店。"
  },
  {
    "id": "sukiya-nanba",
    "legacy_id": 417,
    "name": "すき家 難波店",
    "area_id": "nanba",
    "genre": "丼もの",
    "time_category": ["朝", "昼", "夜"],
    "hours": "24時間営業",
    "tags": ["サク飯", "一人OK", "深夜OK"],
    "address": "大阪府大阪市中央区難波2-1-5",
    "lat": 34.6658,
    "lng": 135.505,
    "default_ai_summary": "難波の24時間牛丼・カレー。朝一前の軽食から深夜の締めまで、幅広い時間帯で使える。"
  },
  {
    "id": "kineya-honten-nanba",
    "legacy_id": 418,
    "name": "杵屋本店 難波",
    "area_id": "nanba",
    "genre": "そば/うどん",
    "time_category": ["昼", "夜"],
    "hours": "11:00〜21:00",
    "tags": ["サク飯", "一人OK"],
    "address": "大阪府大阪市中央区難波3-5-15",
    "lat": 34.6652,
    "lng": 135.504,
    "default_ai_summary": "難波の老舗そば・うどん店。あっさり系で朝一前の軽食や短い休憩にも使いやすい地場の味。"
  },
  {
    "id": "tsurukame-udon-nanba",
    "legacy_id": 419,
    "name": "鶴亀 難波千日前店",
    "area_id": "nanba",
    "genre": "そば/うどん",
    "time_category": ["昼", "夜"],
    "hours": "11:00〜22:00",
    "tags": ["サク飯", "一人OK"],
    "address": "大阪府大阪市中央区千日前2-7-20",
    "lat": 34.667,
    "lng": 135.5065,
    "default_ai_summary": "千日前のうどん・そば店。提供が早く、サクッと食べてホールに戻りたい時に便利。"
  },
  {
    "id": "nadai-fujisoba-nanba",
    "legacy_id": 420,
    "name": "なだい富士そば 難波店",
    "area_id": "nanba",
    "genre": "そば/うどん",
    "time_category": ["朝", "昼", "夜"],
    "hours": "24時間営業",
    "tags": ["サク飯", "一人OK", "深夜OK"],
    "address": "大阪府大阪市中央区難波4-1-2",
    "lat": 34.6648,
    "lng": 135.5038,
    "default_ai_summary": "難波の24時間立ち食いそば。朝一前から閉店後まで、いつでも短時間で済ませられる。"
  },
  {
    "id": "gyuta-nanba-honten",
    "legacy_id": 421,
    "name": "焼肉 牛太 本店",
    "area_id": "nanba",
    "genre": "焼肉",
    "time_category": ["昼", "夜"],
    "hours": "11:30〜23:00",
    "tags": ["ガッツリ", "一人OK"],
    "address": "大阪府大阪市中央区道頓堀1-6-15",
    "lat": 34.6685,
    "lng": 135.5028,
    "default_ai_summary": "道頓堀の焼肉名店。勝った日のご褒美焼肉として遠征ユーザーにも人気の地場店。",
    "is_kitaichimeshi": true,
    "selection_tags": ["local_famous", "notable_restaurant"],
    "selection_note": "難波・道頓堀で遠征ユーザーがわざわざ寄る焼肉名店"
  },
  {
    "id": "horumon-sennichimae",
    "legacy_id": 422,
    "name": "法善寺横丁 ホルモン",
    "area_id": "nanba",
    "genre": "焼肉",
    "time_category": ["昼", "夜"],
    "hours": "17:00〜翌2:00",
    "tags": ["ガッツリ", "一人OK", "深夜OK"],
    "address": "大阪府大阪市中央区千日前2-2-7",
    "lat": 34.6674,
    "lng": 135.5068,
    "default_ai_summary": "法善寺横丁のホルモン焼き専門店。閉店後の締めの一杯＋焼肉で難波らしさを味わえる。"
  },
  {
    "id": "gyuan-nanba",
    "legacy_id": 423,
    "name": "焼肉 牛庵 難波店",
    "area_id": "nanba",
    "genre": "焼肉",
    "time_category": ["昼", "夜"],
    "hours": "11:30〜23:00",
    "tags": ["ガッツリ", "一人OK"],
    "address": "大阪府大阪市中央区難波2-2-15",
    "lat": 34.666,
    "lng": 135.5048,
    "default_ai_summary": "難波の焼肉店。一人でも入りやすく、昼からガッツリ焼肉で軍資金を補充できる。"
  },
  {
    "id": "ganso-sushi-nanba",
    "legacy_id": 424,
    "name": "元祖寿司 なんば本店",
    "area_id": "nanba",
    "genre": "回転寿司",
    "time_category": ["昼", "夜"],
    "hours": "11:00〜23:00",
    "tags": ["サク飯", "一人OK"],
    "address": "大阪府大阪市中央区道頓堀1-6-10",
    "lat": 34.6682,
    "lng": 135.5025,
    "default_ai_summary": "道頓堀の回転寿司。提供が早く、サクッと寿司を食べてホールに戻りたい時に便利。"
  },
  {
    "id": "mawaru-sushi-nanba",
    "legacy_id": 425,
    "name": "廻る寿司 なんば店",
    "area_id": "nanba",
    "genre": "回転寿司",
    "time_category": ["昼", "夜"],
    "hours": "11:00〜22:30",
    "tags": ["サク飯", "一人OK"],
    "address": "大阪府大阪市中央区難波3-7-13",
    "lat": 34.6648,
    "lng": 135.5042,
    "default_ai_summary": "難波の回転寿司。一人でも入りやすく、閉店後の締め寿司にも使いやすい。"
  },
  {
    "id": "mosburger-nanba",
    "legacy_id": 426,
    "name": "モスバーガー 難波店",
    "area_id": "nanba",
    "genre": "ハンバーガー",
    "time_category": ["昼", "夜"],
    "hours": "10:00〜23:00",
    "tags": ["サク飯", "一人OK"],
    "address": "大阪府大阪市中央区難波5-1-15",
    "lat": 34.6638,
    "lng": 135.5012,
    "default_ai_summary": "難波のモスバーガー。手軽に済ませたい昼休憩や、軽めの食事に使いやすい。"
  },
  {
    "id": "shake-shack-nanba",
    "legacy_id": 427,
    "name": "Shake Shack なんばパークス",
    "area_id": "nanba",
    "genre": "ハンバーガー",
    "time_category": ["昼", "夜"],
    "hours": "10:00〜22:00",
    "tags": ["ガッツリ", "一人OK"],
    "address": "大阪府大阪市中央区難波5-1-60 なんばパークス",
    "lat": 34.663,
    "lng": 135.501,
    "default_ai_summary": "なんばパークスのShake Shack。勝った日のご褒美バーガーとして、遠征の締め飯にも使える。"
  }
]
